[{"StopIdKC":1000,"StopCode":0,"StopName":"Pine St & 9th Ave","StopDesc":"","StopLat":47.6134148,"StopLon":-122.332138,"ZoneId":21,"StopUrl":"","LocationType":"0","ParentStation":"","StopTimezone":"America/Los_Angeles"},{"StopIdKC":10005,"StopCode":0,"StopName":"40th Ave NE & NE 51st St","StopDesc":"","StopLat":47.6658859,"StopLon":-122.284897,"ZoneId":1,"StopUrl":"","LocationType":"0","ParentStation":"","StopTimezone":"America/Los_Angeles"},{"StopIdKC":10010,"StopCode":0,"StopName":"NE 55th St & 39th Ave NE","StopDesc":"","StopLat":47.6685791,"StopLon":-122.285667,"ZoneId":1,"StopUrl":"","LocationType":"0","ParentStation":"","StopTimezone":"America/Los_Angeles"},{"StopIdKC":10020,"StopCode":0,"StopName":"NE 55th St & 37th Ave NE","StopDesc":"","StopLat":47.6685791,"StopLon":-122.2883,"ZoneId":1,"StopUrl":"","LocationType":"0","ParentStation":"","StopTimezone":"America/Los_Angeles"},{"StopIdKC":10030,"StopCode":0,"StopName":"NE 55th St & 35th Ave NE","StopDesc":"","StopLat":47.6685791,"StopLon":-122.290512,"ZoneId":1,"StopUrl":"","LocationType":"0","ParentStation":"","StopTimezone":"America/Los_Angeles"},{"StopIdKC":10040,"StopCode":0,"StopName":"NE 55th St & 33rd Ave NE","StopDesc":"","StopLat":47.6685829,"StopLon":-122.293015,"ZoneId":1,"StopUrl":"","LocationType":"0","ParentStation":"","StopTimezone":"America/Los_Angeles"},{"StopIdKC":10050,"StopCode":0,"StopName":"NE 55th St & 30th Ave NE","StopDesc":"","StopLat":47.6685905,"StopLon":-122.295448,"ZoneId":1,"StopUrl":"","LocationType":"0","ParentStation":"","StopTimezone":"America/Los_Angeles"},{"StopIdKC":10060,"StopCode":0,"StopName":"NE 55th St & 27th Ave NE","StopDesc":"","StopLat":47.6685944,"StopLon":-122.298859,"ZoneId":1,"StopUrl":"","LocationType":"0","ParentStation":"","StopTimezone":"America/Los_Angeles"},{"StopIdKC":10070,"StopCode":0,"StopName":"NE 55th St & 25th Ave NE","StopDesc":"","StopLat":47.6685944,"StopLon":-122.30098,"ZoneId":1,"StopUrl":"","LocationType":"0","ParentStation":"","StopTimezone":"America/Los_Angeles"},{"StopIdKC":10083,"StopCode":0,"StopName":"Ravenna Ave NE & Ravenna Pl NE","StopDesc":"","StopLat":47.6684799,"StopLon":-122.30378,"ZoneId":1,"StopUrl":"","LocationType":"0","ParentStation":"","StopTimezone":"America/Los_Angeles"},{"StopIdKC":1010,"StopCode":0,"StopName":"Howell St & Minor Ave","StopDesc":"","StopLat":47.6167107,"StopLon":-122.330597,"ZoneId":1,"StopUrl":"","LocationType":"0","ParentStation":"","StopTimezone":"America/Los_Angeles"},{"StopIdKC":10100,"StopCode":0,"StopName":"NE Ravenna Blvd & Park Rd NE","StopDesc":"","StopLat":47.6695518,"StopLon":-122.305405,"ZoneId":1,"StopUrl":"","LocationType":"0","ParentStation":"","StopTimezone":"America/Los_Angeles"},{"StopIdKC":10110,"StopCode":0,"StopName":"20th Ave NE & NE 55th St","StopDesc":"","StopLat":47.6682739,"StopLon":-122.30658,"ZoneId":1,"StopUrl":"","LocationType":"0","ParentStation":"","StopTimezone":"America/Los_Angeles"},{"StopIdKC":10120,"StopCode":0,"StopName":"20th Ave NE & NE 52nd St","StopDesc":"","StopLat":47.6662827,"StopLon":-122.306602,"ZoneId":1,"StopUrl":"","LocationType":"0","ParentStation":"","StopTimezone":"America/Los_Angeles"},{"StopIdKC":10130,"StopCode":0,"StopName":"NE 50th St & 19th Ave NE","StopDesc":"","StopLat":47.6649284,"StopLon":-122.307114,"ZoneId":1,"StopUrl":"","LocationType":"0","ParentStation":"","StopTimezone":"America/Los_Angeles"},{"StopIdKC":10145,"StopCode":0,"StopName":"NE 50th St & 16th Ave NE","StopDesc":"","StopLat":47.664959,"StopLon":-122.311172,"ZoneId":1,"StopUrl":"","LocationType":"0","ParentStation":"","StopTimezone":"America/Los_Angeles"},{"StopIdKC":10190,"StopCode":0,"StopName":"Fairview Ave N & Aloha St","StopDesc":"","StopLat":47.6270752,"StopLon":-122.333122,"ZoneId":1,"StopUrl":"","LocationType":"0","ParentStation":"","StopTimezone":"America/Los_Angeles"},{"StopIdKC":10210,"StopCode":0,"StopName":"Fairview Ave N & Mercer St","StopDesc":"","StopLat":47.6237869,"StopLon":-122.334457,"ZoneId":1,"StopUrl":"","LocationType":"0","ParentStation":"","StopTimezone":"America/Los_Angeles"},{"StopIdKC":10225,"StopCode":0,"StopName":"Fairview Ave N & Thomas St","StopDesc":"","StopLat":47.6205864,"StopLon":-122.334435,"ZoneId":1,"StopUrl":"","LocationType":"0","ParentStation":"","StopTimezone":"America/Los_Angeles"},{"StopIdKC":10240,"StopCode":0,"StopName":"Boren Ave & Virginia St","StopDesc":"","StopLat":47.6175003,"StopLon":-122.333817,"ZoneId":1,"StopUrl":"","LocationType":"0","ParentStation":"","StopTimezone":"America/Los_Angeles"},{"StopIdKC":10280,"StopCode":0,"StopName":"Fairview Ave & Denny Way","StopDesc":"","StopLat":47.6184196,"StopLon":-122.334198,"ZoneId":1,"StopUrl":"","LocationType":"0","ParentStation":"","StopTimezone":"America/Los_Angeles"},{"StopIdKC":10305,"StopCode":0,"StopName":"Fairview Ave N & Harrison St","StopDesc":"","StopLat":47.6222763,"StopLon":-122.334229,"ZoneId":1,"StopUrl":"","LocationType":"0","ParentStation":"","StopTimezone":"America/Los_Angeles"},{"StopIdKC":10325,"StopCode":0,"StopName":"Fairview Ave N & Valley St","StopDesc":"","StopLat":47.626545,"StopLon":-122.333542,"ZoneId":1,"StopUrl":"","LocationType":"0","ParentStation":"","StopTimezone":"America/Los_Angeles"},{"StopIdKC":10328,"StopCode":0,"StopName":"Valley St & Fairview Ave N","StopDesc":"","StopLat":47.6260338,"StopLon":-122.334106,"ZoneId":1,"StopUrl":"","LocationType":"0","ParentStation":"","StopTimezone":"America/Los_Angeles"},{"StopIdKC":10370,"StopCode":0,"StopName":"NE 50th St & University Way NE","StopDesc":"","StopLat":47.6648293,"StopLon":-122.31266,"ZoneId":1,"StopUrl":"","LocationType":"0","ParentStation":"","StopTimezone":"America/Los_Angeles"},{"StopIdKC":10380,"StopCode":0,"StopName":"NE 50th St & 16th Ave NE","StopDesc":"","StopLat":47.664814,"StopLon":-122.310432,"ZoneId":1,"StopUrl":"","LocationType":"0","ParentStation":"","StopTimezone":"America/Los_Angeles"},{"StopIdKC":1040,"StopCode":0,"StopName":"Olive Way & 6th Ave","StopDesc":"","StopLat":47.6130257,"StopLon":-122.336334,"ZoneId":21,"StopUrl":"","LocationType":"0","ParentStation":"","StopTimezone":"America/Los_Angeles"},{"StopIdKC":10400,"StopCode":0,"StopName":"20th Ave NE & NE 50th St","StopDesc":"","StopLat":47.6650276,"StopLon":-122.306404,"ZoneId":1,"StopUrl":"","LocationType":"0","ParentStation":"","StopTimezone":"America/Los_Angeles"},{"StopIdKC":10410,"StopCode":0,"StopName":"20th Ave NE & NE 52nd St","StopDesc":"","StopLat":47.6666412,"StopLon":-122.306404,"ZoneId":1,"StopUrl":"","LocationType":"0","ParentStation":"","StopTimezone":"America/Los_Angeles"},{"StopIdKC":10420,"StopCode":0,"StopName":"20th Ave NE & NE 54th St","StopDesc":"","StopLat":47.6681633,"StopLon":-122.306389,"ZoneId":1,"StopUrl":"","LocationType":"0","ParentStation":"","StopTimezone":"America/Los_Angeles"},{"StopIdKC":10430,"StopCode":0,"StopName":"NE Ravenna Blvd & 21st Ave NE","StopDesc":"","StopLat":47.6692657,"StopLon":-122.305489,"ZoneId":1,"StopUrl":"","LocationType":"0","ParentStation":"","StopTimezone":"America/Los_Angeles"},{"StopIdKC":10445,"StopCode":0,"StopName":"Ravenna Ave NE & NE 54th St","StopDesc":"","StopLat":47.6680031,"StopLon":-122.303864,"ZoneId":1,"StopUrl":"","LocationType":"0","ParentStation":"","StopTimezone":"America/Los_Angeles"},{"StopIdKC":10460,"StopCode":0,"StopName":"NE 55th St & 25th Ave NE","StopDesc":"","StopLat":47.6684494,"StopLon":-122.300217,"ZoneId":1,"StopUrl":"","LocationType":"0","ParentStation":"","StopTimezone":"America/Los_Angeles"},{"StopIdKC":10470,"StopCode":0,"StopName":"NE 55th St & 27th Ave NE","StopDesc":"","StopLat":47.6684494,"StopLon":-122.298218,"ZoneId":1,"StopUrl":"","LocationType":"0","ParentStation":"","StopTimezone":"America/Los_Angeles"},{"StopIdKC":10480,"StopCode":0,"StopName":"NE 55th St & 30th Ave NE","StopDesc":"","StopLat":47.6684494,"StopLon":-122.295074,"ZoneId":1,"StopUrl":"","LocationType":"0","ParentStation":"","StopTimezone":"America/Los_Angeles"},{"StopIdKC":10490,"StopCode":0,"StopName":"NE 55th St & 33rd Ave NE","StopDesc":"","StopLat":47.6684494,"StopLon":-122.29232,"ZoneId":1,"StopUrl":"","LocationType":"0","ParentStation":"","StopTimezone":"America/Los_Angeles"},{"StopIdKC":1050,"StopCode":0,"StopName":"Olive Way & 8th Ave","StopDesc":"","StopLat":47.6139374,"StopLon":-122.33416,"ZoneId":1,"StopUrl":"","LocationType":"0","ParentStation":"","StopTimezone":"America/Los_Angeles"},{"StopIdKC":10500,"StopCode":0,"StopName":"NE 55th St & 35th Ave NE","StopDesc":"","StopLat":47.6684456,"StopLon":-122.29039,"ZoneId":1,"StopUrl":"","LocationType":"0","ParentStation":"","StopTimezone":"America/Los_Angeles"},{"StopIdKC":1051,"StopCode":0,"StopName":"Olive Way & Boren Ave","StopDesc":"","StopLat":47.6156158,"StopLon":-122.33017,"ZoneId":1,"StopUrl":"","LocationType":"0","ParentStation":"","StopTimezone":"America/Los_Angeles"},{"StopIdKC":10510,"StopCode":0,"StopName":"NE 55th St & 36th Ave NE","StopDesc":"","StopLat":47.6684456,"StopLon":-122.288803,"ZoneId":1,"StopUrl":"","LocationType":"0","ParentStation":"","StopTimezone":"America/Los_Angeles"},{"StopIdKC":10513,"StopCode":0,"StopName":"40th Ave NE & NE 46th St","StopDesc":"","StopLat":47.6618309,"StopLon":-122.284668,"ZoneId":1,"StopUrl":"","LocationType":"0","ParentStation":"","StopTimezone":"America/Los_Angeles"},{"StopIdKC":10515,"StopCode":0,"StopName":"40th Ave NE & NE 50th St","StopDesc":"","StopLat":47.6650925,"StopLon":-122.284698,"ZoneId":1,"StopUrl":"","LocationType":"0","ParentStation":"","StopTimezone":"America/Los_Angeles"},{"StopIdKC":10525,"StopCode":0,"StopName":"NE 55th St & 40th Ave NE","StopDesc":"","StopLat":47.6684418,"StopLon":-122.285049,"ZoneId":1,"StopUrl":"","LocationType":"0","ParentStation":"","StopTimezone":"America/Los_Angeles"},{"StopIdKC":10550,"StopCode":0,"StopName":"NE 55th St & 45th Ave NE","StopDesc":"","StopLat":47.6690025,"StopLon":-122.279121,"ZoneId":1,"StopUrl":"","LocationType":"0","ParentStation":"","StopTimezone":"America/Los_Angeles"},{"StopIdKC":10560,"StopCode":0,"StopName":"NE 55th St & Princeton Ave NE","StopDesc":"","StopLat":47.6691818,"StopLon":-122.275909,"ZoneId":1,"StopUrl":"","LocationType":"0","ParentStation":"","StopTimezone":"America/Los_Angeles"},{"StopIdKC":10561,"StopCode":0,"StopName":"Sand Point Way NE & 38th Ave NE","StopDesc":"","StopLat":47.6615753,"StopLon":-122.286484,"ZoneId":1,"StopUrl":"","LocationType":"0","ParentStation":"","StopTimezone":"America/Los_Angeles"},{"StopIdKC":10562,"StopCode":0,"StopName":"Sand Point Way NE & 40th Ave NE","StopDesc":"","StopLat":47.6634483,"StopLon":-122.284119,"ZoneId":1,"StopUrl":"","LocationType":"0","ParentStation":"","StopTimezone":"America/Los_Angeles"},{"StopIdKC":10564,"StopCode":0,"StopName":"Sand Point Way NE & NE 50th St","StopDesc":"","StopLat":47.6646538,"StopLon":-122.282867,"ZoneId":1,"StopUrl":"","LocationType":"0","ParentStation":"","StopTimezone":"America/Los_Angeles"},{"StopIdKC":10566,"StopCode":0,"StopName":"Sand Point Way NE & NE 52nd St","StopDesc":"","StopLat":47.6670799,"StopLon":-122.28035,"ZoneId":1,"StopUrl":"","LocationType":"0","ParentStation":"","StopTimezone":"America/Los_Angeles"},{"StopIdKC":10568,"StopCode":0,"StopName":"Sand Point Way NE & Princeton Ave NE","StopDesc":"","StopLat":47.6681938,"StopLon":-122.275978,"ZoneId":1,"StopUrl":"","LocationType":"0","ParentStation":"","StopTimezone":"America/Los_Angeles"},{"StopIdKC":10570,"StopCode":0,"StopName":"Sand Point Way NE & NE 55th St","StopDesc":"","StopLat":47.6683273,"StopLon":-122.273605,"ZoneId":1,"StopUrl":"","LocationType":"0","ParentStation":"","StopTimezone":"America/Los_Angeles"},{"StopIdKC":10580,"StopCode":0,"StopName":"Sand Point Way NE & NE Windermere Rd","StopDesc":"","StopLat":47.6702614,"StopLon":-122.270485,"ZoneId":1,"StopUrl":"","LocationType":"0","ParentStation":"","StopTimezone":"America/Los_Angeles"},{"StopIdKC":10600,"StopCode":0,"StopName":"Sand Point Way NE & NE 61st St","StopDesc":"","StopLat":47.6729889,"StopLon":-122.266663,"ZoneId":1,"StopUrl":"","LocationType":"0","ParentStation":"","StopTimezone":"America/Los_Angeles"},{"StopIdKC":10615,"StopCode":0,"StopName":"NE 65th St & Radford Dr NE","StopDesc":"","StopLat":47.6758385,"StopLon":-122.263069,"ZoneId":1,"StopUrl":"","LocationType":"0","ParentStation":"","StopTimezone":"America/Los_Angeles"},{"StopIdKC":10620,"StopCode":0,"StopName":"Sand Point Way NE & NE 65th St","StopDesc":"","StopLat":47.6759758,"StopLon":-122.263428,"ZoneId":1,"StopUrl":"","LocationType":"0","ParentStation":"","StopTimezone":"America/Los_Angeles"},{"StopIdKC":10630,"StopCode":0,"StopName":"Sand Point Way NE & NE 70th St","StopDesc":"","StopLat":47.6797371,"StopLon":-122.263519,"ZoneId":1,"StopUrl":"","LocationType":"0","ParentStation":"","StopTimezone":"America/Los_Angeles"},{"StopIdKC":10640,"StopCode":0,"StopName":"Sand Point Way NE & NE 74th St","StopDesc":"","StopLat":47.6817589,"StopLon":-122.263565,"ZoneId":1,"StopUrl":"","LocationType":"0","ParentStation":"","StopTimezone":"America/Los_Angeles"},{"StopIdKC":10650,"StopCode":0,"StopName":"Sand Point Way NE & NE 77th St","StopDesc":"","StopLat":47.6850052,"StopLon":-122.264465,"ZoneId":1,"StopUrl":"","LocationType":"0","ParentStation":"","StopTimezone":"America/Los_Angeles"},{"StopIdKC":10653,"StopCode":0,"StopName":"NOAA & Building 1","StopDesc":"","StopLat":47.6865425,"StopLon":-122.257362,"ZoneId":1,"StopUrl":"","LocationType":"0","ParentStation":"","StopTimezone":"America/Los_Angeles"},{"StopIdKC":10654,"StopCode":0,"StopName":"NE NOAA Dr","StopDesc":"","StopLat":47.6861496,"StopLon":-122.260803,"ZoneId":1,"StopUrl":"","LocationType":"0","ParentStation":"","StopTimezone":"America/Los_Angeles"},{"StopIdKC":10657,"StopCode":0,"StopName":"NE NOAA Dr & Guard Shack","StopDesc":"","StopLat":47.6862411,"StopLon":-122.259926,"ZoneId":1,"StopUrl":"","LocationType":"0","ParentStation":"","StopTimezone":"America/Los_Angeles"},{"StopIdKC":10658,"StopCode":0,"StopName":"NOAA & Building 3","StopDesc":"","StopLat":47.6860123,"StopLon":-122.255531,"ZoneId":1,"StopUrl":"","LocationType":"0","ParentStation":"","StopTimezone":"America/Los_Angeles"},{"StopIdKC":10680,"StopCode":0,"StopName":"Sand Point Way NE & Inverness Dr NE","StopDesc":"","StopLat":47.6927567,"StopLon":-122.270775,"ZoneId":1,"StopUrl":"","LocationType":"0","ParentStation":"","StopTimezone":"America/Los_Angeles"},{"StopIdKC":10700,"StopCode":0,"StopName":"Sand Point Way NE & Matthews Pl NE","StopDesc":"","StopLat":47.6945229,"StopLon":-122.275177,"ZoneId":1,"StopUrl":"","LocationType":"0","ParentStation":"","StopTimezone":"America/Los_Angeles"},{"StopIdKC":10710,"StopCode":0,"StopName":"Sand Point Way NE & NE 93rd St","StopDesc":"","StopLat":47.6961441,"StopLon":-122.276566,"ZoneId":1,"StopUrl":"","LocationType":"0","ParentStation":"","StopTimezone":"America/Los_Angeles"},{"StopIdKC":10720,"StopCode":0,"StopName":"Sand Point Way NE & NE 95th St","StopDesc":"","StopLat":47.6972351,"StopLon":-122.277443,"ZoneId":1,"StopUrl":"","LocationType":"0","ParentStation":"","StopTimezone":"America/Los_Angeles"},{"StopIdKC":10730,"StopCode":0,"StopName":"Sand Point Way NE & NE 97th St","StopDesc":"","StopLat":47.6990929,"StopLon":-122.277634,"ZoneId":1,"StopUrl":"","LocationType":"0","ParentStation":"","StopTimezone":"America/Los_Angeles"},{"StopIdKC":10750,"StopCode":0,"StopName":"Sand Point Way NE & NE 103rd St","StopDesc":"","StopLat":47.7030869,"StopLon":-122.277565,"ZoneId":1,"StopUrl":"","LocationType":"0","ParentStation":"","StopTimezone":"America/Los_Angeles"},{"StopIdKC":10760,"StopCode":0,"StopName":"Sand Point Way NE & NE 106th St","StopDesc":"","StopLat":47.7053642,"StopLon":-122.278374,"ZoneId":1,"StopUrl":"","LocationType":"0","ParentStation":"","StopTimezone":"America/Los_Angeles"},{"StopIdKC":10780,"StopCode":0,"StopName":"Sand Point Way NE & NE 110th St","StopDesc":"","StopLat":47.7092285,"StopLon":-122.280212,"ZoneId":1,"StopUrl":"","LocationType":"0","ParentStation":"","StopTimezone":"America/Los_Angeles"},{"StopIdKC":10800,"StopCode":0,"StopName":"Sand Point Way NE & NE 115th St","StopDesc":"","StopLat":47.7126198,"StopLon":-122.281837,"ZoneId":1,"StopUrl":"","LocationType":"0","ParentStation":"","StopTimezone":"America/Los_Angeles"},{"StopIdKC":10820,"StopCode":0,"StopName":"Sand Point Way NE & NE 120th St","StopDesc":"","StopLat":47.7160149,"StopLon":-122.283005,"ZoneId":1,"StopUrl":"","LocationType":"0","ParentStation":"","StopTimezone":"America/Los_Angeles"},{"StopIdKC":10830,"StopCode":0,"StopName":"Sand Point Way NE & NE 123rd St","StopDesc":"","StopLat":47.717598,"StopLon":-122.283928,"ZoneId":1,"StopUrl":"","LocationType":"0","ParentStation":"","StopTimezone":"America/Los_Angeles"},{"StopIdKC":10840,"StopCode":0,"StopName":"Sand Point Way NE & NE 125th St","StopDesc":"","StopLat":47.7192917,"StopLon":-122.286949,"ZoneId":1,"StopUrl":"","LocationType":"0","ParentStation":"","StopTimezone":"America/Los_Angeles"},{"StopIdKC":1085,"StopCode":0,"StopName":"Pine St & 9th Ave","StopDesc":"","StopLat":47.6133766,"StopLon":-122.332603,"ZoneId":21,"StopUrl":"","LocationType":"0","ParentStation":"","StopTimezone":"America/Los_Angeles"},{"StopIdKC":10860,"StopCode":0,"StopName":"NE 125th St & 35th Ave NE","StopDesc":"","StopLat":47.7193222,"StopLon":-122.291283,"ZoneId":1,"StopUrl":"","LocationType":"0","ParentStation":"","StopTimezone":"America/Los_Angeles"},{"StopIdKC":10870,"StopCode":0,"StopName":"NE 125th St & 33rd Ave NE","StopDesc":"","StopLat":47.7193375,"StopLon":-122.293205,"ZoneId":1,"StopUrl":"","LocationType":"0","ParentStation":"","StopTimezone":"America/Los_Angeles"},{"StopIdKC":10910,"StopCode":0,"StopName":"12th Ave NE & NE 47th St","StopDesc":"","StopLat":47.662281,"StopLon":-122.315475,"ZoneId":1,"StopUrl":"","LocationType":"0","ParentStation":"","StopTimezone":"America/Los_Angeles"},{"StopIdKC":10911,"StopCode":0,"StopName":"NE 45th St & University Way NE","StopDesc":"","StopLat":47.6612053,"StopLon":-122.313477,"ZoneId":1,"StopUrl":"","LocationType":"0","ParentStation":"","StopTimezone":"America/Los_Angeles"},{"StopIdKC":10912,"StopCode":0,"StopName":"15th Ave NE & NE 43rd St","StopDesc":"","StopLat":47.6593704,"StopLon":-122.312096,"ZoneId":1,"StopUrl":"","LocationType":"0","ParentStation":"","StopTimezone":"America/Los_Angeles"},{"StopIdKC":10914,"StopCode":0,"StopName":"15th Ave NE & NE Campus Pkwy","StopDesc":"","StopLat":47.6564217,"StopLon":-122.312164,"ZoneId":1,"StopUrl":"","LocationType":"0","ParentStation":"","StopTimezone":"America/Los_Angeles"},{"StopIdKC":10915,"StopCode":0,"StopName":"Harvard Ave E & Eastlake Ave E","StopDesc":"","StopLat":47.6500931,"StopLon":-122.321999,"ZoneId":1,"StopUrl":"","LocationType":"0","ParentStation":"","StopTimezone":"America/Los_Angeles"},{"StopIdKC":10916,"StopCode":0,"StopName":"Harvard Ave E & Eastlake Ave E","StopDesc":"","StopLat":47.649704,"StopLon":-122.322205,"ZoneId":1,"StopUrl":"","LocationType":"0","ParentStation":"","StopTimezone":"America/Los_Angeles"},{"StopIdKC":10917,"StopCode":0,"StopName":"15th Ave NE & NE 40th St","StopDesc":"","StopLat":47.6548195,"StopLon":-122.31221,"ZoneId":1,"StopUrl":"","LocationType":"0","ParentStation":"","StopTimezone":"America/Los_Angeles"},{"StopIdKC":10920,"StopCode":0,"StopName":"Harvard Ave E & E Shelby St","StopDesc":"","StopLat":47.647007,"StopLon":-122.322205,"ZoneId":1,"StopUrl":"","LocationType":"0","ParentStation":"","StopTimezone":"America/Los_Angeles"},{"StopIdKC":10940,"StopCode":0,"StopName":"10th Ave E & E Roanoke St","StopDesc":"","StopLat":47.6429367,"StopLon":-122.32016,"ZoneId":1,"StopUrl":"","LocationType":"0","ParentStation":"","StopTimezone":"America/Los_Angeles"},{"StopIdKC":10950,"StopCode":0,"StopName":"10th Ave E & E Miller St","StopDesc":"","StopLat":47.6411629,"StopLon":-122.32016,"ZoneId":1,"StopUrl":"","LocationType":"0","ParentStation":"","StopTimezone":"America/Los_Angeles"},{"StopIdKC":10970,"StopCode":0,"StopName":"10th Ave E & E Newton St","StopDesc":"","StopLat":47.6370277,"StopLon":-122.320183,"ZoneId":1,"StopUrl":"","LocationType":"0","ParentStation":"","StopTimezone":"America/Los_Angeles"},{"StopIdKC":10990,"StopCode":0,"StopName":"10th Ave E & E Galer St","StopDesc":"","StopLat":47.6321259,"StopLon":-122.320305,"ZoneId":1,"StopUrl":"","LocationType":"0","ParentStation":"","StopTimezone":"America/Los_Angeles"},{"StopIdKC":11010,"StopCode":0,"StopName":"10th Ave E & E Prospect St","StopDesc":"","StopLat":47.6287384,"StopLon":-122.32032,"ZoneId":1,"StopUrl":"","LocationType":"0","ParentStation":"","StopTimezone":"America/Los_Angeles"},{"StopIdKC":11025,"StopCode":0,"StopName":"Boren Ave & Jefferson St","StopDesc":"","StopLat":47.6060677,"StopLon":-122.322029,"ZoneId":1,"StopUrl":"","LocationType":"0","ParentStation":"","StopTimezone":"America/Los_Angeles"},{"StopIdKC":11030,"StopCode":0,"StopName":"E Roy St & Broadway  E","StopDesc":"","StopLat":47.6251907,"StopLon":-122.320816,"ZoneId":1,"StopUrl":"","LocationType":"0","ParentStation":"","StopTimezone":"America/Los_Angeles"},{"StopIdKC":11033,"StopCode":0,"StopName":"Boren Ave & Marion St","StopDesc":"","StopLat":47.608429,"StopLon":-122.324188,"ZoneId":1,"StopUrl":"","LocationType":"0","ParentStation":"","StopTimezone":"America/Los_Angeles"},{"StopIdKC":11035,"StopCode":0,"StopName":"Boren Ave & Madison St","StopDesc":"","StopLat":47.6096344,"StopLon":-122.325294,"ZoneId":1,"StopUrl":"","LocationType":"0","ParentStation":"","StopTimezone":"America/Los_Angeles"},{"StopIdKC":11040,"StopCode":0,"StopName":"Broadway  E & E Republican St","StopDesc":"","StopLat":47.6228943,"StopLon":-122.321014,"ZoneId":1,"StopUrl":"","LocationType":"0","ParentStation":"","StopTimezone":"America/Los_Angeles"},{"StopIdKC":11050,"StopCode":0,"StopName":"Broadway  E & E Thomas St","StopDesc":"","StopLat":47.6208153,"StopLon":-122.320992,"ZoneId":1,"StopUrl":"","LocationType":"0","ParentStation":"","StopTimezone":"America/Los_Angeles"},{"StopIdKC":11060,"StopCode":0,"StopName":"Broadway & E Denny Way","StopDesc":"","StopLat":47.6185379,"StopLon":-122.320946,"ZoneId":1,"StopUrl":"","LocationType":"0","ParentStation":"","StopTimezone":"America/Los_Angeles"},{"StopIdKC":11065,"StopCode":0,"StopName":"Boren Ave & Pike St","StopDesc":"","StopLat":47.6135406,"StopLon":-122.329102,"ZoneId":1,"StopUrl":"","LocationType":"0","ParentStation":"","StopTimezone":"America/Los_Angeles"},{"StopIdKC":11070,"StopCode":0,"StopName":"Broadway & E Pine St","StopDesc":"","StopLat":47.6161919,"StopLon":-122.320923,"ZoneId":1,"StopUrl":"","LocationType":"0","ParentStation":"","StopTimezone":"America/Los_Angeles"},{"StopIdKC":11075,"StopCode":0,"StopName":"Boren Ave & Seneca St","StopDesc":"","StopLat":47.6103745,"StopLon":-122.32621,"ZoneId":1,"StopUrl":"","LocationType":"0","ParentStation":"","StopTimezone":"America/Los_Angeles"},{"StopIdKC":1108,"StopCode":0,"StopName":"Westlake Tunnel Station & Pine St - 3rd 4th & 5th Avenue - Bay C","StopDesc":"","StopLat":47.6114502,"StopLon":-122.337532,"ZoneId":21,"StopUrl":"","LocationType":"0","ParentStation":"","StopTimezone":"America/Los_Angeles"},{"StopIdKC":11080,"StopCode":0,"StopName":"E Pine St & Broadway","StopDesc":"","StopLat":47.615303,"StopLon":-122.321495,"ZoneId":1,"StopUrl":"","LocationType":"0","ParentStation":"","StopTimezone":"America/Los_Angeles"},{"StopIdKC":11085,"StopCode":0,"StopName":"Boren Ave & Madison St","StopDesc":"","StopLat":47.6089554,"StopLon":-122.324913,"ZoneId":1,"StopUrl":"","LocationType":"0","ParentStation":"","StopTimezone":"America/Los_Angeles"},{"StopIdKC":11087,"StopCode":0,"StopName":"Boren Ave & Columbia St","StopDesc":"","StopLat":47.6075935,"StopLon":-122.323669,"ZoneId":1,"StopUrl":"","LocationType":"0","ParentStation":"","StopTimezone":"America/Los_Angeles"},{"StopIdKC":11090,"StopCode":0,"StopName":"E Pine St & Belmont Ave","StopDesc":"","StopLat":47.6152878,"StopLon":-122.325127,"ZoneId":1,"StopUrl":"","LocationType":"0","ParentStation":"","StopTimezone":"America/Los_Angeles"},{"StopIdKC":11095,"StopCode":0,"StopName":"Boren Ave & James St","StopDesc":"","StopLat":47.6062164,"StopLon":-122.322395,"ZoneId":1,"StopUrl":"","LocationType":"0","ParentStation":"","StopTimezone":"America/Los_Angeles"},{"StopIdKC":1110,"StopCode":0,"StopName":"Pine St & 5th Ave","StopDesc":"","StopLat":47.6117668,"StopLon":-122.336456,"ZoneId":21,"StopUrl":"","LocationType":"0","ParentStation":"","StopTimezone":"America/Los_Angeles"},{"StopIdKC":11100,"StopCode":0,"StopName":"E Pine St & Bellevue Ave","StopDesc":"","StopLat":47.6152992,"StopLon":-122.327271,"ZoneId":1,"StopUrl":"","LocationType":"0","ParentStation":"","StopTimezone":"America/Los_Angeles"},{"StopIdKC":11130,"StopCode":0,"StopName":"Pike St & Convention Pl","StopDesc":"","StopLat":47.6123695,"StopLon":-122.33136,"ZoneId":21,"StopUrl":"","LocationType":"0","ParentStation":"","StopTimezone":"America/Los_Angeles"},{"StopIdKC":11132,"StopCode":0,"StopName":"Pike St & Boren Ave","StopDesc":"","StopLat":47.6135788,"StopLon":-122.328445,"ZoneId":1,"StopUrl":"","LocationType":"0","ParentStation":"","StopTimezone":"America/Los_Angeles"},{"StopIdKC":11140,"StopCode":0,"StopName":"E Pine St & Summit Ave","StopDesc":"","StopLat":47.6151581,"StopLon":-122.324638,"ZoneId":1,"StopUrl":"","LocationType":"0","ParentStation":"","StopTimezone":"America/Los_Angeles"},{"StopIdKC":11150,"StopCode":0,"StopName":"E Pine St & Harvard Ave","StopDesc":"","StopLat":47.6151619,"StopLon":-122.321617,"ZoneId":1,"StopUrl":"","LocationType":"0","ParentStation":"","StopTimezone":"America/Los_Angeles"},{"StopIdKC":11175,"StopCode":0,"StopName":"Broadway & E Howell St","StopDesc":"","StopLat":47.6181564,"StopLon":-122.320747,"ZoneId":1,"StopUrl":"","LocationType":"0","ParentStation":"","StopTimezone":"America/Los_Angeles"},{"StopIdKC":11180,"StopCode":0,"StopName":"Broadway  E & E John St","StopDesc":"","StopLat":47.6201553,"StopLon":-122.320786,"ZoneId":1,"StopUrl":"","LocationType":"0","ParentStation":"","StopTimezone":"America/Los_Angeles"},{"StopIdKC":11190,"StopCode":0,"StopName":"Broadway  E & E Harrison St","StopDesc":"","StopLat":47.6221962,"StopLon":-122.320816,"ZoneId":1,"StopUrl":"","LocationType":"0","ParentStation":"","StopTimezone":"America/Los_Angeles"},{"StopIdKC":11191,"StopCode":0,"StopName":"10th Ave E & E Mercer St","StopDesc":"","StopLat":47.623951,"StopLon":-122.319992,"ZoneId":1,"StopUrl":"","LocationType":"0","ParentStation":"","StopTimezone":"America/Los_Angeles"},{"StopIdKC":1120,"StopCode":0,"StopName":"Pine St & 4th Ave","StopDesc":"","StopLat":47.6111031,"StopLon":-122.338028,"ZoneId":21,"StopUrl":"","LocationType":"0","ParentStation":"","StopTimezone":"America/Los_Angeles"},{"StopIdKC":11200,"StopCode":0,"StopName":"Broadway  E & E Mercer St","StopDesc":"","StopLat":47.6246109,"StopLon":-122.320839,"ZoneId":1,"StopUrl":"","LocationType":"0","ParentStation":"","StopTimezone":"America/Los_Angeles"},{"StopIdKC":1121,"StopCode":0,"StopName":"Westlake Station & Pine St - 3rd 4th & 5th Avenue - Bay A","StopDesc":"","StopLat":47.6117592,"StopLon":-122.335785,"ZoneId":21,"StopUrl":"","LocationType":"0","ParentStation":"","StopTimezone":"America/Los_Angeles"},{"StopIdKC":11230,"StopCode":0,"StopName":"10th Ave E & E Prospect St","StopDesc":"","StopLat":47.6288605,"StopLon":-122.320114,"ZoneId":1,"StopUrl":"","LocationType":"0","ParentStation":"","StopTimezone":"America/Los_Angeles"},{"StopIdKC":11250,"StopCode":0,"StopName":"10th Ave E & E Galer St","StopDesc":"","StopLat":47.6322136,"StopLon":-122.320099,"ZoneId":1,"StopUrl":"","LocationType":"0","ParentStation":"","StopTimezone":"America/Los_Angeles"},{"StopIdKC":11270,"StopCode":0,"StopName":"10th Ave E & E Howe St","StopDesc":"","StopLat":47.6361618,"StopLon":-122.319992,"ZoneId":1,"StopUrl":"","LocationType":"0","ParentStation":"","StopTimezone":"America/Los_Angeles"},{"StopIdKC":11290,"StopCode":0,"StopName":"10th Ave E & E Miller St","StopDesc":"","StopLat":47.641571,"StopLon":-122.319969,"ZoneId":1,"StopUrl":"","LocationType":"0","ParentStation":"","StopTimezone":"America/Los_Angeles"},{"StopIdKC":11300,"StopCode":0,"StopName":"E Roanoke St & Broadway  E","StopDesc":"","StopLat":47.643261,"StopLon":-122.320747,"ZoneId":1,"StopUrl":"","LocationType":"0","ParentStation":"","StopTimezone":"America/Los_Angeles"},{"StopIdKC":11330,"StopCode":0,"StopName":"Harvard Ave E & E Shelby St","StopDesc":"","StopLat":47.647171,"StopLon":-122.321999,"ZoneId":1,"StopUrl":"","LocationType":"0","ParentStation":"","StopTimezone":"America/Los_Angeles"},{"StopIdKC":11352,"StopCode":0,"StopName":"15th Ave NE & NE 42nd St","StopDesc":"","StopLat":47.6586685,"StopLon":-122.311905,"ZoneId":1,"StopUrl":"","LocationType":"0","ParentStation":"","StopTimezone":"America/Los_Angeles"},{"StopIdKC":11354,"StopCode":0,"StopName":"NE 45th St & Brooklyn Ave NE","StopDesc":"","StopLat":47.6613464,"StopLon":-122.313889,"ZoneId":1,"StopUrl":"","LocationType":"0","ParentStation":"","StopTimezone":"America/Los_Angeles"},{"StopIdKC":11370,"StopCode":0,"StopName":"15th Ave E & E Galer St","StopDesc":"","StopLat":47.6324997,"StopLon":-122.312607,"ZoneId":1,"StopUrl":"","LocationType":"0","ParentStation":"","StopTimezone":"America/Los_Angeles"},{"StopIdKC":11390,"StopCode":0,"StopName":"15th Ave E & E Prospect St","StopDesc":"","StopLat":47.628479,"StopLon":-122.312668,"ZoneId":1,"StopUrl":"","LocationType":"0","ParentStation":"","StopTimezone":"America/Los_Angeles"},{"StopIdKC":11400,"StopCode":0,"StopName":"15th Ave E & E Aloha St","StopDesc":"","StopLat":47.6266823,"StopLon":-122.312668,"ZoneId":1,"StopUrl":"","LocationType":"0","ParentStation":"","StopTimezone":"America/Los_Angeles"},{"StopIdKC":11410,"StopCode":0,"StopName":"15th Ave E & E Roy St","StopDesc":"","StopLat":47.6250267,"StopLon":-122.312698,"ZoneId":1,"StopUrl":"","LocationType":"0","ParentStation":"","StopTimezone":"America/Los_Angeles"},{"StopIdKC":11420,"StopCode":0,"StopName":"15th Ave E & E Mercer St","StopDesc":"","StopLat":47.62397,"StopLon":-122.312714,"ZoneId":1,"StopUrl":"","LocationType":"0","ParentStation":"","StopTimezone":"America/Los_Angeles"},{"StopIdKC":11430,"StopCode":0,"StopName":"15th Ave E & E Republican St","StopDesc":"","StopLat":47.6228943,"StopLon":-122.312737,"ZoneId":1,"StopUrl":"","LocationType":"0","ParentStation":"","StopTimezone":"America/Los_Angeles"},{"StopIdKC":11480,"StopCode":0,"StopName":"E Pine St & 15th Ave","StopDesc":"","StopLat":47.6153564,"StopLon":-122.313164,"ZoneId":1,"StopUrl":"","LocationType":"0","ParentStation":"","StopTimezone":"America/Los_Angeles"},{"StopIdKC":11490,"StopCode":0,"StopName":"E Pine St & 13th Ave","StopDesc":"","StopLat":47.615345,"StopLon":-122.31591,"ZoneId":1,"StopUrl":"","LocationType":"0","ParentStation":"","StopTimezone":"America/Los_Angeles"},{"StopIdKC":11520,"StopCode":0,"StopName":"E Pine St & 12th Ave","StopDesc":"","StopLat":47.6152,"StopLon":-122.316483,"ZoneId":1,"StopUrl":"","LocationType":"0","ParentStation":"","StopTimezone":"America/Los_Angeles"},{"StopIdKC":11535,"StopCode":0,"StopName":"E Pine St & 15th Ave","StopDesc":"","StopLat":47.6152115,"StopLon":-122.311852,"ZoneId":1,"StopUrl":"","LocationType":"0","ParentStation":"","StopTimezone":"America/Los_Angeles"},{"StopIdKC":11570,"StopCode":0,"StopName":"15th Ave E & E Harrison St","StopDesc":"","StopLat":47.62257,"StopLon":-122.312538,"ZoneId":1,"StopUrl":"","LocationType":"0","ParentStation":"","StopTimezone":"America/Los_Angeles"},{"StopIdKC":11590,"StopCode":0,"StopName":"15th Ave E & E Roy St","StopDesc":"","StopLat":47.6254234,"StopLon":-122.312492,"ZoneId":1,"StopUrl":"","LocationType":"0","ParentStation":"","StopTimezone":"America/Los_Angeles"},{"StopIdKC":11600,"StopCode":0,"StopName":"15th Ave E & E Aloha St","StopDesc":"","StopLat":47.6270981,"StopLon":-122.312469,"ZoneId":1,"StopUrl":"","LocationType":"0","ParentStation":"","StopTimezone":"America/Los_Angeles"},{"StopIdKC":11610,"StopCode":0,"StopName":"15th Ave E & E Prospect St","StopDesc":"","StopLat":47.6289024,"StopLon":-122.312454,"ZoneId":1,"StopUrl":"","LocationType":"0","ParentStation":"","StopTimezone":"America/Los_Angeles"},{"StopIdKC":11620,"StopCode":0,"StopName":"15th Ave E & E Highland Dr","StopDesc":"","StopLat":47.6308327,"StopLon":-122.312424,"ZoneId":1,"StopUrl":"","LocationType":"0","ParentStation":"","StopTimezone":"America/Los_Angeles"},{"StopIdKC":11630,"StopCode":0,"StopName":"Grandview Pl E & E Galer St","StopDesc":"","StopLat":47.6325226,"StopLon":-122.311821,"ZoneId":1,"StopUrl":"","LocationType":"0","ParentStation":"","StopTimezone":"America/Los_Angeles"},{"StopIdKC":11640,"StopCode":0,"StopName":"Grandview Pl E & E Garfield St","StopDesc":"","StopLat":47.634079,"StopLon":-122.311798,"ZoneId":1,"StopUrl":"","LocationType":"0","ParentStation":"","StopTimezone":"America/Los_Angeles"},{"StopIdKC":11680,"StopCode":0,"StopName":"Mount Rainier Dr S & S Hanford St","StopDesc":"","StopLat":47.5756569,"StopLon":-122.284843,"ZoneId":1,"StopUrl":"","LocationType":"0","ParentStation":"","StopTimezone":"America/Los_Angeles"},{"StopIdKC":11690,"StopCode":0,"StopName":"Mount Rainier Dr S & S Ridgeway Pl","StopDesc":"","StopLat":47.5765381,"StopLon":-122.28624,"ZoneId":1,"StopUrl":"","LocationType":"0","ParentStation":"","StopTimezone":"America/Los_Angeles"},{"StopIdKC":11700,"StopCode":0,"StopName":"S Mcclellan St & Lake Park Dr S","StopDesc":"","StopLat":47.5784073,"StopLon":-122.288605,"ZoneId":1,"StopUrl":"","LocationType":"0","ParentStation":"","StopTimezone":"America/Los_Angeles"},{"StopIdKC":11720,"StopCode":0,"StopName":"S Mcclellan St & 31st Ave S","StopDesc":"","StopLat":47.5784111,"StopLon":-122.292671,"ZoneId":1,"StopUrl":"","LocationType":"0","ParentStation":"","StopTimezone":"America/Los_Angeles"},{"StopIdKC":11730,"StopCode":0,"StopName":"31st Ave S & S Lander St","StopDesc":"","StopLat":47.5798607,"StopLon":-122.292908,"ZoneId":1,"StopUrl":"","LocationType":"0","ParentStation":"","StopTimezone":"America/Los_Angeles"},{"StopIdKC":11750,"StopCode":0,"StopName":"31st Ave S & S College St","StopDesc":"","StopLat":47.5827065,"StopLon":-122.292892,"ZoneId":1,"StopUrl":"","LocationType":"0","ParentStation":"","StopTimezone":"America/Los_Angeles"},{"StopIdKC":11770,"StopCode":0,"StopName":"31st Ave S & S Plum St","StopDesc":"","StopLat":47.5850983,"StopLon":-122.292908,"ZoneId":1,"StopUrl":"","LocationType":"0","ParentStation":"","StopTimezone":"America/Los_Angeles"},{"StopIdKC":11790,"StopCode":0,"StopName":"31st Ave S & S Massachusetts St","StopDesc":"","StopLat":47.5881615,"StopLon":-122.292442,"ZoneId":1,"StopUrl":"","LocationType":"0","ParentStation":"","StopTimezone":"America/Los_Angeles"},{"StopIdKC":1180,"StopCode":0,"StopName":"Pike St & 4th Ave","StopDesc":"","StopLat":47.6101341,"StopLon":-122.336685,"ZoneId":21,"StopUrl":"","LocationType":"0","ParentStation":"","StopTimezone":"America/Los_Angeles"},{"StopIdKC":11800,"StopCode":0,"StopName":"31st Ave S & S Day St","StopDesc":"","StopLat":47.5905342,"StopLon":-122.292305,"ZoneId":1,"StopUrl":"","LocationType":"0","ParentStation":"","StopTimezone":"America/Los_Angeles"},{"StopIdKC":11820,"StopCode":0,"StopName":"31st Ave S & S Norman St","StopDesc":"","StopLat":47.5935059,"StopLon":-122.292656,"ZoneId":1,"StopUrl":"","LocationType":"0","ParentStation":"","StopTimezone":"America/Los_Angeles"},{"StopIdKC":11840,"StopCode":0,"StopName":"31st Ave S & S Dearborn St","StopDesc":"","StopLat":47.5959206,"StopLon":-122.292603,"ZoneId":1,"StopUrl":"","LocationType":"0","ParentStation":"","StopTimezone":"America/Los_Angeles"},{"StopIdKC":11860,"StopCode":0,"StopName":"31st Ave S & S King St","StopDesc":"","StopLat":47.597908,"StopLon":-122.292519,"ZoneId":1,"StopUrl":"","LocationType":"0","ParentStation":"","StopTimezone":"America/Los_Angeles"},{"StopIdKC":11870,"StopCode":0,"StopName":"S Jackson St & 30th Ave S","StopDesc":"","StopLat":47.5992508,"StopLon":-122.29364,"ZoneId":1,"StopUrl":"","LocationType":"0","ParentStation":"","StopTimezone":"America/Los_Angeles"},{"StopIdKC":11880,"StopCode":0,"StopName":"S Jackson St & 28th Ave S","StopDesc":"","StopLat":47.5992851,"StopLon":-122.296112,"ZoneId":1,"StopUrl":"","LocationType":"0","ParentStation":"","StopTimezone":"America/Los_Angeles"},{"StopIdKC":11890,"StopCode":0,"StopName":"S Jackson St & Martin L King Jr Way S","StopDesc":"","StopLat":47.5993042,"StopLon":-122.297752,"ZoneId":1,"StopUrl":"","LocationType":"0","ParentStation":"","StopTimezone":"America/Los_Angeles"},{"StopIdKC":1190,"StopCode":0,"StopName":"Pike St & 6th Ave","StopDesc":"","StopLat":47.6110344,"StopLon":-122.334526,"ZoneId":21,"StopUrl":"","LocationType":"0","ParentStation":"","StopTimezone":"America/Los_Angeles"},{"StopIdKC":11910,"StopCode":0,"StopName":"S Jackson St & 23rd Ave S","StopDesc":"","StopLat":47.5993462,"StopLon":-122.302032,"ZoneId":1,"StopUrl":"","LocationType":"0","ParentStation":"","StopTimezone":"America/Los_Angeles"},{"StopIdKC":11920,"StopCode":0,"StopName":"S Jackson St & 20th Pl S","StopDesc":"","StopLat":47.5993347,"StopLon":-122.304642,"ZoneId":1,"StopUrl":"","LocationType":"0","ParentStation":"","StopTimezone":"America/Los_Angeles"},{"StopIdKC":11940,"StopCode":0,"StopName":"S Jackson St & 18th Ave S","StopDesc":"","StopLat":47.5993042,"StopLon":-122.309349,"ZoneId":1,"StopUrl":"","LocationType":"0","ParentStation":"","StopTimezone":"America/Los_Angeles"},{"StopIdKC":1195,"StopCode":0,"StopName":"Pike St & 7th Ave","StopDesc":"","StopLat":47.6118088,"StopLon":-122.332687,"ZoneId":21,"StopUrl":"","LocationType":"0","ParentStation":"","StopTimezone":"America/Los_Angeles"},{"StopIdKC":11960,"StopCode":0,"StopName":"S Jackson St & Rainier Ave S","StopDesc":"","StopLat":47.5991402,"StopLon":-122.313576,"ZoneId":1,"StopUrl":"","LocationType":"0","ParentStation":"","StopTimezone":"America/Los_Angeles"},{"StopIdKC":11980,"StopCode":0,"StopName":"S Jackson St & 18th Ave S","StopDesc":"","StopLat":47.5991669,"StopLon":-122.309738,"ZoneId":1,"StopUrl":"","LocationType":"0","ParentStation":"","StopTimezone":"America/Los_Angeles"},{"StopIdKC":11990,"StopCode":0,"StopName":"S Jackson St & 20th Ave S","StopDesc":"","StopLat":47.5991898,"StopLon":-122.305992,"ZoneId":1,"StopUrl":"","LocationType":"0","ParentStation":"","StopTimezone":"America/Los_Angeles"},{"StopIdKC":12010,"StopCode":0,"StopName":"S Jackson St & 23rd Ave S","StopDesc":"","StopLat":47.5992203,"StopLon":-122.30143,"ZoneId":1,"StopUrl":"","LocationType":"0","ParentStation":"","StopTimezone":"America/Los_Angeles"},{"StopIdKC":12030,"StopCode":0,"StopName":"S Jackson St & 28th Ave S","StopDesc":"","StopLat":47.5991478,"StopLon":-122.295952,"ZoneId":1,"StopUrl":"","LocationType":"0","ParentStation":"","StopTimezone":"America/Los_Angeles"},{"StopIdKC":12040,"StopCode":0,"StopName":"S Jackson St & 30th Ave S","StopDesc":"","StopLat":47.5991173,"StopLon":-122.29393,"ZoneId":1,"StopUrl":"","LocationType":"0","ParentStation":"","StopTimezone":"America/Los_Angeles"},{"StopIdKC":12050,"StopCode":0,"StopName":"31st Ave S & S King St","StopDesc":"","StopLat":47.597744,"StopLon":-122.29274,"ZoneId":1,"StopUrl":"","LocationType":"0","ParentStation":"","StopTimezone":"America/Los_Angeles"},{"StopIdKC":12070,"StopCode":0,"StopName":"31st Ave S & S Dearborn St","StopDesc":"","StopLat":47.5955124,"StopLon":-122.292809,"ZoneId":1,"StopUrl":"","LocationType":"0","ParentStation":"","StopTimezone":"America/Los_Angeles"},{"StopIdKC":12080,"StopCode":0,"StopName":"31st Ave S & S Norman St","StopDesc":"","StopLat":47.5930748,"StopLon":-122.292877,"ZoneId":1,"StopUrl":"","LocationType":"0","ParentStation":"","StopTimezone":"America/Los_Angeles"},{"StopIdKC":1209,"StopCode":0,"StopName":"Convention Pl & Union St","StopDesc":"","StopLat":47.6111259,"StopLon":-122.331779,"ZoneId":21,"StopUrl":"","LocationType":"0","ParentStation":"","StopTimezone":"America/Los_Angeles"},{"StopIdKC":12090,"StopCode":0,"StopName":"31st Ave S & S Irving St","StopDesc":"","StopLat":47.5909729,"StopLon":-122.292496,"ZoneId":1,"StopUrl":"","LocationType":"0","ParentStation":"","StopTimezone":"America/Los_Angeles"},{"StopIdKC":12110,"StopCode":0,"StopName":"31st Ave S & S Massachusetts St","StopDesc":"","StopLat":47.5878716,"StopLon":-122.292648,"ZoneId":1,"StopUrl":"","LocationType":"0","ParentStation":"","StopTimezone":"America/Los_Angeles"},{"StopIdKC":12130,"StopCode":0,"StopName":"31st Ave S & S Plum St","StopDesc":"","StopLat":47.5849571,"StopLon":-122.293098,"ZoneId":1,"StopUrl":"","LocationType":"0","ParentStation":"","StopTimezone":"America/Los_Angeles"},{"StopIdKC":12140,"StopCode":0,"StopName":"31st Ave S & S Walker St","StopDesc":"","StopLat":47.5834236,"StopLon":-122.293106,"ZoneId":1,"StopUrl":"","LocationType":"0","ParentStation":"","StopTimezone":"America/Los_Angeles"},{"StopIdKC":1215,"StopCode":0,"StopName":"Union St & 5th Ave","StopDesc":"","StopLat":47.6097679,"StopLon":-122.334648,"ZoneId":21,"StopUrl":"","LocationType":"0","ParentStation":"","StopTimezone":"America/Los_Angeles"},{"StopIdKC":12160,"StopCode":0,"StopName":"31st Ave S & S Lander St","StopDesc":"","StopLat":47.579422,"StopLon":-122.293098,"ZoneId":1,"StopUrl":"","LocationType":"0","ParentStation":"","StopTimezone":"America/Los_Angeles"},{"StopIdKC":12170,"StopCode":0,"StopName":"S Mcclellan St & 31st Ave S","StopDesc":"","StopLat":47.5782738,"StopLon":-122.292587,"ZoneId":1,"StopUrl":"","LocationType":"0","ParentStation":"","StopTimezone":"America/Los_Angeles"},{"StopIdKC":12190,"StopCode":0,"StopName":"S Mcclellan St & S Mount Baker Blvd","StopDesc":"","StopLat":47.5782738,"StopLon":-122.288712,"ZoneId":1,"StopUrl":"","LocationType":"0","ParentStation":"","StopTimezone":"America/Los_Angeles"},{"StopIdKC":12200,"StopCode":0,"StopName":"Mount Rainier Dr S & 37th Pl S","StopDesc":"","StopLat":47.5767555,"StopLon":-122.286827,"ZoneId":1,"StopUrl":"","LocationType":"0","ParentStation":"","StopTimezone":"America/Los_Angeles"},{"StopIdKC":12210,"StopCode":0,"StopName":"E Mcgilvra St & 42nd Ave E","StopDesc":"","StopLat":47.6407738,"StopLon":-122.278122,"ZoneId":1,"StopUrl":"","LocationType":"0","ParentStation":"","StopTimezone":"America/Los_Angeles"},{"StopIdKC":12220,"StopCode":0,"StopName":"42nd Ave E & E Lynn St","StopDesc":"","StopLat":47.6388626,"StopLon":-122.278534,"ZoneId":1,"StopUrl":"","LocationType":"0","ParentStation":"","StopTimezone":"America/Los_Angeles"},{"StopIdKC":12230,"StopCode":0,"StopName":"42nd Ave E & E Newton St","StopDesc":"","StopLat":47.6367264,"StopLon":-122.278564,"ZoneId":1,"StopUrl":"","LocationType":"0","ParentStation":"","StopTimezone":"America/Los_Angeles"},{"StopIdKC":12240,"StopCode":0,"StopName":"42nd Ave E & E Madison St","StopDesc":"","StopLat":47.6356049,"StopLon":-122.278572,"ZoneId":1,"StopUrl":"","LocationType":"0","ParentStation":"","StopTimezone":"America/Los_Angeles"},{"StopIdKC":12250,"StopCode":0,"StopName":"E Madison St & 41st Ave E","StopDesc":"","StopLat":47.6346397,"StopLon":-122.279846,"ZoneId":1,"StopUrl":"","LocationType":"0","ParentStation":"","StopTimezone":"America/Los_Angeles"},{"StopIdKC":12260,"StopCode":0,"StopName":"E Madison St & E Garfield St","StopDesc":"","StopLat":47.6334572,"StopLon":-122.281593,"ZoneId":1,"StopUrl":"","LocationType":"0","ParentStation":"","StopTimezone":"America/Los_Angeles"},{"StopIdKC":12270,"StopCode":0,"StopName":"E Madison St & 38th Ave E","StopDesc":"","StopLat":47.6319466,"StopLon":-122.283836,"ZoneId":1,"StopUrl":"","LocationType":"0","ParentStation":"","StopTimezone":"America/Los_Angeles"},{"StopIdKC":12280,"StopCode":0,"StopName":"E Madison St & 36th Ave E","StopDesc":"","StopLat":47.6302643,"StopLon":-122.286324,"ZoneId":1,"StopUrl":"","LocationType":"0","ParentStation":"","StopTimezone":"America/Los_Angeles"},{"StopIdKC":12290,"StopCode":0,"StopName":"E Madison St & 34th Ave E","StopDesc":"","StopLat":47.6289024,"StopLon":-122.288345,"ZoneId":1,"StopUrl":"","LocationType":"0","ParentStation":"","StopTimezone":"America/Los_Angeles"},{"StopIdKC":1230,"StopCode":0,"StopName":"Union St & 4th Ave","StopDesc":"","StopLat":47.6091309,"StopLon":-122.336182,"ZoneId":21,"StopUrl":"","LocationType":"0","ParentStation":"","StopTimezone":"America/Los_Angeles"},{"StopIdKC":12310,"StopCode":0,"StopName":"E Madison St & Lake Washington Blvd","StopDesc":"","StopLat":47.6259193,"StopLon":-122.292725,"ZoneId":1,"StopUrl":"","LocationType":"0","ParentStation":"","StopTimezone":"America/Los_Angeles"},{"StopIdKC":12322,"StopCode":0,"StopName":"E Madison St & 28th Ave E","StopDesc":"","StopLat":47.6231651,"StopLon":-122.296799,"ZoneId":1,"StopUrl":"","LocationType":"0","ParentStation":"","StopTimezone":"America/Los_Angeles"},{"StopIdKC":12340,"StopCode":0,"StopName":"E Madison St & 25th Ave E","StopDesc":"","StopLat":47.6208687,"StopLon":-122.300186,"ZoneId":1,"StopUrl":"","LocationType":"0","ParentStation":"","StopTimezone":"America/Los_Angeles"},{"StopIdKC":12350,"StopCode":0,"StopName":"E Madison St & 23rd Ave E","StopDesc":"","StopLat":47.6192856,"StopLon":-122.302536,"ZoneId":1,"StopUrl":"","LocationType":"0","ParentStation":"","StopTimezone":"America/Los_Angeles"},{"StopIdKC":12351,"StopCode":0,"StopName":"E Madison St & 22nd Ave E","StopDesc":"","StopLat":47.617981,"StopLon":-122.304611,"ZoneId":1,"StopUrl":"","LocationType":"0","ParentStation":"","StopTimezone":"America/Los_Angeles"},{"StopIdKC":12352,"StopCode":0,"StopName":"E Madison St & 20th Ave","StopDesc":"","StopLat":47.6173515,"StopLon":-122.306114,"ZoneId":1,"StopUrl":"","LocationType":"0","ParentStation":"","StopTimezone":"America/Los_Angeles"},{"StopIdKC":12353,"StopCode":0,"StopName":"E Madison St & 19th Ave","StopDesc":"","StopLat":47.6166191,"StopLon":-122.307877,"ZoneId":1,"StopUrl":"","LocationType":"0","ParentStation":"","StopTimezone":"America/Los_Angeles"},{"StopIdKC":12354,"StopCode":0,"StopName":"E Madison St & 17th Ave","StopDesc":"","StopLat":47.6155205,"StopLon":-122.310516,"ZoneId":1,"StopUrl":"","LocationType":"0","ParentStation":"","StopTimezone":"America/Los_Angeles"},{"StopIdKC":12355,"StopCode":0,"StopName":"E Madison St & 15th Ave","StopDesc":"","StopLat":47.6143608,"StopLon":-122.313301,"ZoneId":1,"StopUrl":"","LocationType":"0","ParentStation":"","StopTimezone":"America/Los_Angeles"},{"StopIdKC":12371,"StopCode":0,"StopName":"E Madison St & 15th Ave","StopDesc":"","StopLat":47.6145515,"StopLon":-122.312454,"ZoneId":1,"StopUrl":"","LocationType":"0","ParentStation":"","StopTimezone":"America/Los_Angeles"},{"StopIdKC":12372,"StopCode":0,"StopName":"E Madison St & 17th Ave","StopDesc":"","StopLat":47.6154594,"StopLon":-122.310265,"ZoneId":1,"StopUrl":"","LocationType":"0","ParentStation":"","StopTimezone":"America/Los_Angeles"},{"StopIdKC":12373,"StopCode":0,"StopName":"E Madison St & 18th Ave","StopDesc":"","StopLat":47.6161728,"StopLon":-122.308563,"ZoneId":1,"StopUrl":"","LocationType":"0","ParentStation":"","StopTimezone":"America/Los_Angeles"},{"StopIdKC":12375,"StopCode":0,"StopName":"E Madison St & 20th Ave","StopDesc":"","StopLat":47.617363,"StopLon":-122.305702,"ZoneId":1,"StopUrl":"","LocationType":"0","ParentStation":"","StopTimezone":"America/Los_Angeles"},{"StopIdKC":12376,"StopCode":0,"StopName":"E Madison St & 22nd Ave","StopDesc":"","StopLat":47.6181717,"StopLon":-122.303886,"ZoneId":1,"StopUrl":"","LocationType":"0","ParentStation":"","StopTimezone":"America/Los_Angeles"},{"StopIdKC":12377,"StopCode":0,"StopName":"E Madison St & 23rd Ave E","StopDesc":"","StopLat":47.6192589,"StopLon":-122.302277,"ZoneId":1,"StopUrl":"","LocationType":"0","ParentStation":"","StopTimezone":"America/Los_Angeles"},{"StopIdKC":12378,"StopCode":0,"StopName":"E Madison St & 25th Ave E","StopDesc":"","StopLat":47.6210938,"StopLon":-122.299561,"ZoneId":1,"StopUrl":"","LocationType":"0","ParentStation":"","StopTimezone":"America/Los_Angeles"},{"StopIdKC":12380,"StopCode":0,"StopName":"E Madison St & 27th Ave E","StopDesc":"","StopLat":47.6224899,"StopLon":-122.297508,"ZoneId":1,"StopUrl":"","LocationType":"0","ParentStation":"","StopTimezone":"America/Los_Angeles"},{"StopIdKC":12390,"StopCode":0,"StopName":"E Madison St & 29th Ave E","StopDesc":"","StopLat":47.6240654,"StopLon":-122.295189,"ZoneId":1,"StopUrl":"","LocationType":"0","ParentStation":"","StopTimezone":"America/Los_Angeles"},{"StopIdKC":12400,"StopCode":0,"StopName":"E Madison St & Lake Washington Blvd","StopDesc":"","StopLat":47.626152,"StopLon":-122.292099,"ZoneId":1,"StopUrl":"","LocationType":"0","ParentStation":"","StopTimezone":"America/Los_Angeles"},{"StopIdKC":12410,"StopCode":0,"StopName":"E Madison St & 33rd Ave E","StopDesc":"","StopLat":47.6281853,"StopLon":-122.289093,"ZoneId":1,"StopUrl":"","LocationType":"0","ParentStation":"","StopTimezone":"America/Los_Angeles"},{"StopIdKC":12420,"StopCode":0,"StopName":"E Madison St & 36th Ave E","StopDesc":"","StopLat":47.6299477,"StopLon":-122.286499,"ZoneId":1,"StopUrl":"","LocationType":"0","ParentStation":"","StopTimezone":"America/Los_Angeles"},{"StopIdKC":12430,"StopCode":0,"StopName":"E Madison St & 38th Ave E","StopDesc":"","StopLat":47.631546,"StopLon":-122.284149,"ZoneId":1,"StopUrl":"","LocationType":"0","ParentStation":"","StopTimezone":"America/Los_Angeles"},{"StopIdKC":12440,"StopCode":0,"StopName":"E Madison St & 39th Ave E","StopDesc":"","StopLat":47.6324272,"StopLon":-122.282822,"ZoneId":1,"StopUrl":"","LocationType":"0","ParentStation":"","StopTimezone":"America/Los_Angeles"},{"StopIdKC":12450,"StopCode":0,"StopName":"E Madison St & 41st Ave E","StopDesc":"","StopLat":47.6343269,"StopLon":-122.280006,"ZoneId":1,"StopUrl":"","LocationType":"0","ParentStation":"","StopTimezone":"America/Los_Angeles"},{"StopIdKC":12460,"StopCode":0,"StopName":"43rd Ave E & E Blaine St","StopDesc":"","StopLat":47.6348839,"StopLon":-122.277046,"ZoneId":1,"StopUrl":"","LocationType":"0","ParentStation":"","StopTimezone":"America/Los_Angeles"},{"StopIdKC":12470,"StopCode":0,"StopName":"43rd Ave E & E Madison St","StopDesc":"","StopLat":47.636631,"StopLon":-122.277016,"ZoneId":1,"StopUrl":"","LocationType":"0","ParentStation":"","StopTimezone":"America/Los_Angeles"},{"StopIdKC":12480,"StopCode":0,"StopName":"43rd Ave E & E Lynn St","StopDesc":"","StopLat":47.6390877,"StopLon":-122.276993,"ZoneId":1,"StopUrl":"","LocationType":"0","ParentStation":"","StopTimezone":"America/Los_Angeles"},{"StopIdKC":12481,"StopCode":0,"StopName":"Martin L King Jr Way S & S Judkins St","StopDesc":"","StopLat":47.59161,"StopLon":-122.297646,"ZoneId":1,"StopUrl":"","LocationType":"0","ParentStation":"","StopTimezone":"America/Los_Angeles"},{"StopIdKC":12484,"StopCode":0,"StopName":"Martin L King Jr Way S & S Hill St","StopDesc":"","StopLat":47.584259,"StopLon":-122.298248,"ZoneId":1,"StopUrl":"","LocationType":"0","ParentStation":"","StopTimezone":"America/Los_Angeles"},{"StopIdKC":12485,"StopCode":0,"StopName":"S Walker St & 25th Ave S","StopDesc":"","StopLat":47.5837135,"StopLon":-122.299629,"ZoneId":1,"StopUrl":"","LocationType":"0","ParentStation":"","StopTimezone":"America/Los_Angeles"},{"StopIdKC":12486,"StopCode":0,"StopName":"Martin L King Jr Way S & S Bayview St","StopDesc":"","StopLat":47.5810013,"StopLon":-122.296921,"ZoneId":1,"StopUrl":"","LocationType":"0","ParentStation":"","StopTimezone":"America/Los_Angeles"},{"StopIdKC":12487,"StopCode":0,"StopName":"Martin L King Jr Way S & S Massachusetts St","StopDesc":"","StopLat":47.5879974,"StopLon":-122.298195,"ZoneId":1,"StopUrl":"","LocationType":"0","ParentStation":"","StopTimezone":"America/Los_Angeles"},{"StopIdKC":12496,"StopCode":0,"StopName":"S Plum St & 25th Ave S","StopDesc":"","StopLat":47.5854111,"StopLon":-122.300079,"ZoneId":1,"StopUrl":"","LocationType":"0","ParentStation":"","StopTimezone":"America/Los_Angeles"},{"StopIdKC":12497,"StopCode":0,"StopName":"Martin L King Jr Way S & S Massachusetts St","StopDesc":"","StopLat":47.5886765,"StopLon":-122.297852,"ZoneId":1,"StopUrl":"","LocationType":"0","ParentStation":"","StopTimezone":"America/Los_Angeles"},{"StopIdKC":1250,"StopCode":0,"StopName":"Seneca St & 4th Ave","StopDesc":"","StopLat":47.6074219,"StopLon":-122.33461,"ZoneId":21,"StopUrl":"","LocationType":"0","ParentStation":"","StopTimezone":"America/Los_Angeles"},{"StopIdKC":12500,"StopCode":0,"StopName":"26th Ave S & S Norman St","StopDesc":"","StopLat":47.5931625,"StopLon":-122.298958,"ZoneId":1,"StopUrl":"","LocationType":"0","ParentStation":"","StopTimezone":"America/Los_Angeles"},{"StopIdKC":12520,"StopCode":0,"StopName":"S Dearborn St & 26th Ave S","StopDesc":"","StopLat":47.5956268,"StopLon":-122.299423,"ZoneId":1,"StopUrl":"","LocationType":"0","ParentStation":"","StopTimezone":"America/Los_Angeles"},{"StopIdKC":12532,"StopCode":0,"StopName":"23rd Ave S & S Lane St","StopDesc":"","StopLat":47.5967102,"StopLon":-122.302124,"ZoneId":1,"StopUrl":"","LocationType":"0","ParentStation":"","StopTimezone":"America/Los_Angeles"},{"StopIdKC":12550,"StopCode":0,"StopName":"23rd Ave S & S Jackson St","StopDesc":"","StopLat":47.5996971,"StopLon":-122.302124,"ZoneId":1,"StopUrl":"","LocationType":"0","ParentStation":"","StopTimezone":"America/Los_Angeles"},{"StopIdKC":12560,"StopCode":0,"StopName":"23rd Ave & E Yesler Way","StopDesc":"","StopLat":47.6018944,"StopLon":-122.302299,"ZoneId":1,"StopUrl":"","LocationType":"0","ParentStation":"","StopTimezone":"America/Los_Angeles"},{"StopIdKC":1260,"StopCode":0,"StopName":"Seneca St & 6th Ave","StopDesc":"","StopLat":47.6087418,"StopLon":-122.331482,"ZoneId":1,"StopUrl":"","LocationType":"0","ParentStation":"","StopTimezone":"America/Los_Angeles"},{"StopIdKC":12600,"StopCode":0,"StopName":"23rd Ave & E Jefferson St","StopDesc":"","StopLat":47.6058998,"StopLon":-122.302887,"ZoneId":1,"StopUrl":"","LocationType":"0","ParentStation":"","StopTimezone":"America/Los_Angeles"},{"StopIdKC":12630,"StopCode":0,"StopName":"23rd Ave S & E Yesler Way","StopDesc":"","StopLat":47.6012573,"StopLon":-122.302361,"ZoneId":1,"StopUrl":"","LocationType":"0","ParentStation":"","StopTimezone":"America/Los_Angeles"},{"StopIdKC":12640,"StopCode":0,"StopName":"23rd Ave S & S Jackson St","StopDesc":"","StopLat":47.5989761,"StopLon":-122.302315,"ZoneId":1,"StopUrl":"","LocationType":"0","ParentStation":"","StopTimezone":"America/Los_Angeles"},{"StopIdKC":12660,"StopCode":0,"StopName":"S Dearborn St & 24th Ave S","StopDesc":"","StopLat":47.5955009,"StopLon":-122.301636,"ZoneId":1,"StopUrl":"","LocationType":"0","ParentStation":"","StopTimezone":"America/Los_Angeles"},{"StopIdKC":12670,"StopCode":0,"StopName":"24th Ave S & S Norman St","StopDesc":"","StopLat":47.5927429,"StopLon":-122.301292,"ZoneId":1,"StopUrl":"","LocationType":"0","ParentStation":"","StopTimezone":"America/Los_Angeles"},{"StopIdKC":12690,"StopCode":0,"StopName":"34th Ave & E Union St","StopDesc":"","StopLat":47.6125031,"StopLon":-122.289421,"ZoneId":1,"StopUrl":"","LocationType":"0","ParentStation":"","StopTimezone":"America/Los_Angeles"},{"StopIdKC":1270,"StopCode":0,"StopName":"Spring St & 4th Ave","StopDesc":"","StopLat":47.6068764,"StopLon":-122.333206,"ZoneId":21,"StopUrl":"","LocationType":"0","ParentStation":"","StopTimezone":"America/Los_Angeles"},{"StopIdKC":12700,"StopCode":0,"StopName":"34th Ave & E Marion St","StopDesc":"","StopLat":47.6105156,"StopLon":-122.289474,"ZoneId":1,"StopUrl":"","LocationType":"0","ParentStation":"","StopTimezone":"America/Los_Angeles"},{"StopIdKC":12712,"StopCode":0,"StopName":"34th Ave & E Cherry St","StopDesc":"","StopLat":47.6080475,"StopLon":-122.289528,"ZoneId":1,"StopUrl":"","LocationType":"0","ParentStation":"","StopTimezone":"America/Los_Angeles"},{"StopIdKC":12720,"StopCode":0,"StopName":"E Cherry St & 32nd Ave","StopDesc":"","StopLat":47.6080322,"StopLon":-122.292,"ZoneId":1,"StopUrl":"","LocationType":"0","ParentStation":"","StopTimezone":"America/Los_Angeles"},{"StopIdKC":12740,"StopCode":0,"StopName":"E Cherry St & Martin L King Jr Way","StopDesc":"","StopLat":47.6080627,"StopLon":-122.296158,"ZoneId":1,"StopUrl":"","LocationType":"0","ParentStation":"","StopTimezone":"America/Los_Angeles"},{"StopIdKC":12760,"StopCode":0,"StopName":"E Cherry St & 24th Ave","StopDesc":"","StopLat":47.6080704,"StopLon":-122.300499,"ZoneId":1,"StopUrl":"","LocationType":"0","ParentStation":"","StopTimezone":"America/Los_Angeles"},{"StopIdKC":12770,"StopCode":0,"StopName":"23rd Ave & E Cherry St","StopDesc":"","StopLat":47.6077118,"StopLon":-122.302879,"ZoneId":1,"StopUrl":"","LocationType":"0","ParentStation":"","StopTimezone":"America/Los_Angeles"},{"StopIdKC":12780,"StopCode":0,"StopName":"E Jefferson St & 23rd Ave","StopDesc":"","StopLat":47.6062393,"StopLon":-122.303215,"ZoneId":1,"StopUrl":"","LocationType":"0","ParentStation":"","StopTimezone":"America/Los_Angeles"},{"StopIdKC":12790,"StopCode":0,"StopName":"E Jefferson St & 21st Ave","StopDesc":"","StopLat":47.6062355,"StopLon":-122.305351,"ZoneId":1,"StopUrl":"","LocationType":"0","ParentStation":"","StopTimezone":"America/Los_Angeles"},{"StopIdKC":1280,"StopCode":0,"StopName":"Spring St & 6th Ave","StopDesc":"","StopLat":47.6078148,"StopLon":-122.330948,"ZoneId":1,"StopUrl":"","LocationType":"0","ParentStation":"","StopTimezone":"America/Los_Angeles"},{"StopIdKC":12805,"StopCode":0,"StopName":"E Jefferson St & 18th Ave","StopDesc":"","StopLat":47.6062508,"StopLon":-122.309669,"ZoneId":1,"StopUrl":"","LocationType":"0","ParentStation":"","StopTimezone":"America/Los_Angeles"},{"StopIdKC":12820,"StopCode":0,"StopName":"E Jefferson St & 15th Ave","StopDesc":"","StopLat":47.606266,"StopLon":-122.313126,"ZoneId":1,"StopUrl":"","LocationType":"0","ParentStation":"","StopTimezone":"America/Los_Angeles"},{"StopIdKC":12840,"StopCode":0,"StopName":"E Jefferson St & 12th Ave","StopDesc":"","StopLat":47.606266,"StopLon":-122.317108,"ZoneId":1,"StopUrl":"","LocationType":"0","ParentStation":"","StopTimezone":"America/Los_Angeles"},{"StopIdKC":12860,"StopCode":0,"StopName":"Jefferson St & Broadway","StopDesc":"","StopLat":47.6061554,"StopLon":-122.321167,"ZoneId":1,"StopUrl":"","LocationType":"0","ParentStation":"","StopTimezone":"America/Los_Angeles"},{"StopIdKC":12880,"StopCode":0,"StopName":"Jefferson St & 9th Ave","StopDesc":"","StopLat":47.6049347,"StopLon":-122.324089,"ZoneId":1,"StopUrl":"","LocationType":"0","ParentStation":"","StopTimezone":"America/Los_Angeles"},{"StopIdKC":12890,"StopCode":0,"StopName":"James St & 8th Ave","StopDesc":"","StopLat":47.6051865,"StopLon":-122.325813,"ZoneId":1,"StopUrl":"","LocationType":"0","ParentStation":"","StopTimezone":"America/Los_Angeles"},{"StopIdKC":12900,"StopCode":0,"StopName":"James St & 8th Ave","StopDesc":"","StopLat":47.6051636,"StopLon":-122.3255,"ZoneId":1,"StopUrl":"","LocationType":"0","ParentStation":"","StopTimezone":"America/Los_Angeles"},{"StopIdKC":12910,"StopCode":0,"StopName":"9th Ave & Jefferson St","StopDesc":"","StopLat":47.6048737,"StopLon":-122.324242,"ZoneId":1,"StopUrl":"","LocationType":"0","ParentStation":"","StopTimezone":"America/Los_Angeles"},{"StopIdKC":12930,"StopCode":0,"StopName":"E Jefferson St & Broadway","StopDesc":"","StopLat":47.606144,"StopLon":-122.320229,"ZoneId":1,"StopUrl":"","LocationType":"0","ParentStation":"","StopTimezone":"America/Los_Angeles"},{"StopIdKC":12950,"StopCode":0,"StopName":"E Jefferson St & 12th Ave","StopDesc":"","StopLat":47.6061249,"StopLon":-122.316376,"ZoneId":1,"StopUrl":"","LocationType":"0","ParentStation":"","StopTimezone":"America/Los_Angeles"},{"StopIdKC":12960,"StopCode":0,"StopName":"E Jefferson St & 14th Ave","StopDesc":"","StopLat":47.6061249,"StopLon":-122.31356,"ZoneId":1,"StopUrl":"","LocationType":"0","ParentStation":"","StopTimezone":"America/Los_Angeles"},{"StopIdKC":12980,"StopCode":0,"StopName":"E Jefferson St & 17th Ave","StopDesc":"","StopLat":47.6061096,"StopLon":-122.309929,"ZoneId":1,"StopUrl":"","LocationType":"0","ParentStation":"","StopTimezone":"America/Los_Angeles"},{"StopIdKC":12991,"StopCode":0,"StopName":"E Jefferson St & 20th Ave","StopDesc":"","StopLat":47.6060982,"StopLon":-122.305962,"ZoneId":1,"StopUrl":"","LocationType":"0","ParentStation":"","StopTimezone":"America/Los_Angeles"},{"StopIdKC":1300,"StopCode":0,"StopName":"Madison St & 8th Ave","StopDesc":"","StopLat":47.6080284,"StopLon":-122.328079,"ZoneId":1,"StopUrl":"","LocationType":"0","ParentStation":"","StopTimezone":"America/Los_Angeles"},{"StopIdKC":13005,"StopCode":0,"StopName":"21st Ave & E James St","StopDesc":"","StopLat":47.607399,"StopLon":-122.304924,"ZoneId":1,"StopUrl":"","LocationType":"0","ParentStation":"","StopTimezone":"America/Los_Angeles"},{"StopIdKC":13020,"StopCode":0,"StopName":"E Cherry St & 23rd Ave","StopDesc":"","StopLat":47.6079369,"StopLon":-122.30233,"ZoneId":1,"StopUrl":"","LocationType":"0","ParentStation":"","StopTimezone":"America/Los_Angeles"},{"StopIdKC":13030,"StopCode":0,"StopName":"E Cherry St & 25th Ave","StopDesc":"","StopLat":47.6079369,"StopLon":-122.299774,"ZoneId":1,"StopUrl":"","LocationType":"0","ParentStation":"","StopTimezone":"America/Los_Angeles"},{"StopIdKC":13040,"StopCode":0,"StopName":"E Cherry St & Martin L King Jr Way","StopDesc":"","StopLat":47.6079292,"StopLon":-122.296364,"ZoneId":1,"StopUrl":"","LocationType":"0","ParentStation":"","StopTimezone":"America/Los_Angeles"},{"StopIdKC":13060,"StopCode":0,"StopName":"E Cherry St & 31st Ave","StopDesc":"","StopLat":47.6079063,"StopLon":-122.292305,"ZoneId":1,"StopUrl":"","LocationType":"0","ParentStation":"","StopTimezone":"America/Los_Angeles"},{"StopIdKC":13070,"StopCode":0,"StopName":"E Cherry St & 33rd Ave","StopDesc":"","StopLat":47.6078835,"StopLon":-122.290253,"ZoneId":1,"StopUrl":"","LocationType":"0","ParentStation":"","StopTimezone":"America/Los_Angeles"},{"StopIdKC":13080,"StopCode":0,"StopName":"34th Ave & E Columbia St","StopDesc":"","StopLat":47.6094742,"StopLon":-122.289299,"ZoneId":1,"StopUrl":"","LocationType":"0","ParentStation":"","StopTimezone":"America/Los_Angeles"},{"StopIdKC":13090,"StopCode":0,"StopName":"E Spring St & 34th Ave","StopDesc":"","StopLat":47.6117134,"StopLon":-122.29023,"ZoneId":1,"StopUrl":"","LocationType":"0","ParentStation":"","StopTimezone":"America/Los_Angeles"},{"StopIdKC":13190,"StopCode":0,"StopName":"Interlaken Turnback Loop & 19th Ave E","StopDesc":"","StopLat":47.6325073,"StopLon":-122.307373,"ZoneId":1,"StopUrl":"","LocationType":"0","ParentStation":"","StopTimezone":"America/Los_Angeles"},{"StopIdKC":13200,"StopCode":0,"StopName":"19th Ave E & E Galer St","StopDesc":"","StopLat":47.631897,"StopLon":-122.307327,"ZoneId":1,"StopUrl":"","LocationType":"0","ParentStation":"","StopTimezone":"America/Los_Angeles"},{"StopIdKC":13210,"StopCode":0,"StopName":"19th Ave E & E Highland Dr","StopDesc":"","StopLat":47.6304359,"StopLon":-122.307358,"ZoneId":1,"StopUrl":"","LocationType":"0","ParentStation":"","StopTimezone":"America/Los_Angeles"},{"StopIdKC":13220,"StopCode":0,"StopName":"19th Ave E & E Prospect St","StopDesc":"","StopLat":47.6284943,"StopLon":-122.307373,"ZoneId":1,"StopUrl":"","LocationType":"0","ParentStation":"","StopTimezone":"America/Los_Angeles"},{"StopIdKC":13230,"StopCode":0,"StopName":"19th Ave E & E Aloha St","StopDesc":"","StopLat":47.6266518,"StopLon":-122.307411,"ZoneId":1,"StopUrl":"","LocationType":"0","ParentStation":"","StopTimezone":"America/Los_Angeles"},{"StopIdKC":13240,"StopCode":0,"StopName":"19th Ave E & E Mercer St","StopDesc":"","StopLat":47.6241951,"StopLon":-122.307396,"ZoneId":1,"StopUrl":"","LocationType":"0","ParentStation":"","StopTimezone":"America/Los_Angeles"},{"StopIdKC":13250,"StopCode":0,"StopName":"19th Ave E & E Harrison St","StopDesc":"","StopLat":47.6219025,"StopLon":-122.307426,"ZoneId":1,"StopUrl":"","LocationType":"0","ParentStation":"","StopTimezone":"America/Los_Angeles"},{"StopIdKC":13260,"StopCode":0,"StopName":"19th Ave E & E John St","StopDesc":"","StopLat":47.6194572,"StopLon":-122.307465,"ZoneId":1,"StopUrl":"","LocationType":"0","ParentStation":"","StopTimezone":"America/Los_Angeles"},{"StopIdKC":13270,"StopCode":0,"StopName":"19th Ave & E Denny Way","StopDesc":"","StopLat":47.6182632,"StopLon":-122.307495,"ZoneId":1,"StopUrl":"","LocationType":"0","ParentStation":"","StopTimezone":"America/Los_Angeles"},{"StopIdKC":13277,"StopCode":0,"StopName":"E Madison St & 13th Ave","StopDesc":"","StopLat":47.6131248,"StopLon":-122.316277,"ZoneId":1,"StopUrl":"","LocationType":"0","ParentStation":"","StopTimezone":"America/Los_Angeles"},{"StopIdKC":13282,"StopCode":0,"StopName":"E Madison St & Broadway Ct","StopDesc":"","StopLat":47.6116257,"StopLon":-122.319855,"ZoneId":1,"StopUrl":"","LocationType":"0","ParentStation":"","StopTimezone":"America/Los_Angeles"},{"StopIdKC":13283,"StopCode":0,"StopName":"Madison St & Summit Ave","StopDesc":"","StopLat":47.610424,"StopLon":-122.322723,"ZoneId":1,"StopUrl":"","LocationType":"0","ParentStation":"","StopTimezone":"America/Los_Angeles"},{"StopIdKC":13284,"StopCode":0,"StopName":"Madison St & Boren Ave","StopDesc":"","StopLat":47.609211,"StopLon":-122.325638,"ZoneId":1,"StopUrl":"","LocationType":"0","ParentStation":"","StopTimezone":"America/Los_Angeles"},{"StopIdKC":13285,"StopCode":0,"StopName":"Madison St & 9th Ave","StopDesc":"","StopLat":47.6083336,"StopLon":-122.327736,"ZoneId":1,"StopUrl":"","LocationType":"0","ParentStation":"","StopTimezone":"America/Los_Angeles"},{"StopIdKC":13291,"StopCode":0,"StopName":"Madison St & Boren Ave","StopDesc":"","StopLat":47.6094246,"StopLon":-122.324745,"ZoneId":1,"StopUrl":"","LocationType":"0","ParentStation":"","StopTimezone":"America/Los_Angeles"},{"StopIdKC":13292,"StopCode":0,"StopName":"Madison St & Summit Ave","StopDesc":"","StopLat":47.6103477,"StopLon":-122.322533,"ZoneId":1,"StopUrl":"","LocationType":"0","ParentStation":"","StopTimezone":"America/Los_Angeles"},{"StopIdKC":13293,"StopCode":0,"StopName":"E Madison St & Broadway","StopDesc":"","StopLat":47.6112671,"StopLon":-122.320335,"ZoneId":1,"StopUrl":"","LocationType":"0","ParentStation":"","StopTimezone":"America/Los_Angeles"},{"StopIdKC":13294,"StopCode":0,"StopName":"E Madison St & 14th Ave","StopDesc":"","StopLat":47.6137772,"StopLon":-122.314308,"ZoneId":1,"StopUrl":"","LocationType":"0","ParentStation":"","StopTimezone":"America/Los_Angeles"},{"StopIdKC":13300,"StopCode":0,"StopName":"19th Ave & E Madison St","StopDesc":"","StopLat":47.6171455,"StopLon":-122.307304,"ZoneId":1,"StopUrl":"","LocationType":"0","ParentStation":"","StopTimezone":"America/Los_Angeles"},{"StopIdKC":13310,"StopCode":0,"StopName":"19th Ave E & E Denny Way","StopDesc":"","StopLat":47.6186981,"StopLon":-122.307274,"ZoneId":1,"StopUrl":"","LocationType":"0","ParentStation":"","StopTimezone":"America/Los_Angeles"},{"StopIdKC":13320,"StopCode":0,"StopName":"19th Ave E & E John St","StopDesc":"","StopLat":47.619873,"StopLon":-122.307259,"ZoneId":1,"StopUrl":"","LocationType":"0","ParentStation":"","StopTimezone":"America/Los_Angeles"},{"StopIdKC":13330,"StopCode":0,"StopName":"19th Ave E & E Thomas St","StopDesc":"","StopLat":47.6206818,"StopLon":-122.307251,"ZoneId":1,"StopUrl":"","LocationType":"0","ParentStation":"","StopTimezone":"America/Los_Angeles"},{"StopIdKC":13340,"StopCode":0,"StopName":"19th Ave E & E Harrison St","StopDesc":"","StopLat":47.6218605,"StopLon":-122.307236,"ZoneId":1,"StopUrl":"","LocationType":"0","ParentStation":"","StopTimezone":"America/Los_Angeles"},{"StopIdKC":13350,"StopCode":0,"StopName":"19th Ave E & E Republican St","StopDesc":"","StopLat":47.6234016,"StopLon":-122.307205,"ZoneId":1,"StopUrl":"","LocationType":"0","ParentStation":"","StopTimezone":"America/Los_Angeles"},{"StopIdKC":13360,"StopCode":0,"StopName":"19th Ave E & E Roy St","StopDesc":"","StopLat":47.6254692,"StopLon":-122.30722,"ZoneId":1,"StopUrl":"","LocationType":"0","ParentStation":"","StopTimezone":"America/Los_Angeles"},{"StopIdKC":13370,"StopCode":0,"StopName":"19th Ave E & E Aloha St","StopDesc":"","StopLat":47.6270447,"StopLon":-122.30719,"ZoneId":1,"StopUrl":"","LocationType":"0","ParentStation":"","StopTimezone":"America/Los_Angeles"},{"StopIdKC":13380,"StopCode":0,"StopName":"19th Ave E & E Prospect St","StopDesc":"","StopLat":47.6288605,"StopLon":-122.307167,"ZoneId":1,"StopUrl":"","LocationType":"0","ParentStation":"","StopTimezone":"America/Los_Angeles"},{"StopIdKC":13381,"StopCode":0,"StopName":"19th Ave E & E Highland Dr","StopDesc":"","StopLat":47.630806,"StopLon":-122.307152,"ZoneId":1,"StopUrl":"","LocationType":"0","ParentStation":"","StopTimezone":"America/Los_Angeles"},{"StopIdKC":1340,"StopCode":0,"StopName":"Yesler Way & Prefontaine Pl S","StopDesc":"","StopLat":47.6016464,"StopLon":-122.329857,"ZoneId":21,"StopUrl":"","LocationType":"0","ParentStation":"","StopTimezone":"America/Los_Angeles"},{"StopIdKC":13441,"StopCode":0,"StopName":"Bellevue Ave & E Olive Way","StopDesc":"","StopLat":47.6167336,"StopLon":-122.326889,"ZoneId":1,"StopUrl":"","LocationType":"0","ParentStation":"","StopTimezone":"America/Los_Angeles"},{"StopIdKC":13460,"StopCode":0,"StopName":"Bellevue Ave & E Olive St","StopDesc":"","StopLat":47.6165085,"StopLon":-122.326691,"ZoneId":1,"StopUrl":"","LocationType":"0","ParentStation":"","StopTimezone":"America/Los_Angeles"},{"StopIdKC":1350,"StopCode":0,"StopName":"Yesler Way & 6th Ave S","StopDesc":"","StopLat":47.6016388,"StopLon":-122.32505,"ZoneId":1,"StopUrl":"","LocationType":"0","ParentStation":"","StopTimezone":"America/Los_Angeles"},{"StopIdKC":13585,"StopCode":0,"StopName":"15th Ave NW & NW 87th St","StopDesc":"","StopLat":47.6929321,"StopLon":-122.376755,"ZoneId":1,"StopUrl":"","LocationType":"0","ParentStation":"","StopTimezone":"America/Los_Angeles"},{"StopIdKC":1360,"StopCode":0,"StopName":"Yesler Way & 5th Ave","StopDesc":"","StopLat":47.6017876,"StopLon":-122.3274,"ZoneId":21,"StopUrl":"","LocationType":"0","ParentStation":"","StopTimezone":"America/Los_Angeles"},{"StopIdKC":13600,"StopCode":0,"StopName":"15th Ave NW & NW 85th St","StopDesc":"","StopLat":47.6901588,"StopLon":-122.376915,"ZoneId":1,"StopUrl":"","LocationType":"0","ParentStation":"","StopTimezone":"America/Los_Angeles"},{"StopIdKC":13620,"StopCode":0,"StopName":"15th Ave NW & NW 80th St","StopDesc":"","StopLat":47.6860619,"StopLon":-122.376892,"ZoneId":1,"StopUrl":"","LocationType":"0","ParentStation":"","StopTimezone":"America/Los_Angeles"},{"StopIdKC":13640,"StopCode":0,"StopName":"15th Ave NW & NW 75th St","StopDesc":"","StopLat":47.682991,"StopLon":-122.376892,"ZoneId":1,"StopUrl":"","LocationType":"0","ParentStation":"","StopTimezone":"America/Los_Angeles"},{"StopIdKC":13660,"StopCode":0,"StopName":"15th Ave NW & NW 70th St","StopDesc":"","StopLat":47.6780052,"StopLon":-122.376877,"ZoneId":1,"StopUrl":"","LocationType":"0","ParentStation":"","StopTimezone":"America/Los_Angeles"},{"StopIdKC":13670,"StopCode":0,"StopName":"15th Ave NW & NW 65th St","StopDesc":"","StopLat":47.6760826,"StopLon":-122.376686,"ZoneId":1,"StopUrl":"","LocationType":"0","ParentStation":"","StopTimezone":"America/Los_Angeles"},{"StopIdKC":1370,"StopCode":0,"StopName":"Yesler Way & 3rd Ave","StopDesc":"","StopLat":47.6017799,"StopLon":-122.329803,"ZoneId":21,"StopUrl":"","LocationType":"0","ParentStation":"","StopTimezone":"America/Los_Angeles"},{"StopIdKC":13700,"StopCode":0,"StopName":"15th Ave NW & NW 60th St","StopDesc":"","StopLat":47.6724358,"StopLon":-122.376312,"ZoneId":1,"StopUrl":"","LocationType":"0","ParentStation":"","StopTimezone":"America/Los_Angeles"},{"StopIdKC":13721,"StopCode":0,"StopName":"15th Ave NW & NW Market St","StopDesc":"","StopLat":47.6689072,"StopLon":-122.376312,"ZoneId":1,"StopUrl":"","LocationType":"0","ParentStation":"","StopTimezone":"America/Los_Angeles"},{"StopIdKC":13760,"StopCode":0,"StopName":"15th Ave NW & NW Leary Way","StopDesc":"","StopLat":47.6631432,"StopLon":-122.37648,"ZoneId":1,"StopUrl":"","LocationType":"0","ParentStation":"","StopTimezone":"America/Los_Angeles"},{"StopIdKC":13770,"StopCode":0,"StopName":"15th Ave W & W Emerson St","StopDesc":"","StopLat":47.6534729,"StopLon":-122.376328,"ZoneId":1,"StopUrl":"","LocationType":"0","ParentStation":"","StopTimezone":"America/Los_Angeles"},{"StopIdKC":13775,"StopCode":0,"StopName":"W Emerson Pl & 21st Ave W","StopDesc":"","StopLat":47.6558075,"StopLon":-122.38372,"ZoneId":1,"StopUrl":"","LocationType":"0","ParentStation":"","StopTimezone":"America/Los_Angeles"},{"StopIdKC":13800,"StopCode":0,"StopName":"15th Ave W & W Dravus St","StopDesc":"","StopLat":47.6481705,"StopLon":-122.376877,"ZoneId":1,"StopUrl":"","LocationType":"0","ParentStation":"","StopTimezone":"America/Los_Angeles"},{"StopIdKC":13810,"StopCode":0,"StopName":"15th Ave W & W Armour St","StopDesc":"","StopLat":47.644825,"StopLon":-122.376328,"ZoneId":1,"StopUrl":"","LocationType":"0","ParentStation":"","StopTimezone":"America/Los_Angeles"},{"StopIdKC":13830,"StopCode":0,"StopName":"15th Ave W & W Wheeler St","StopDesc":"","StopLat":47.6403198,"StopLon":-122.376312,"ZoneId":1,"StopUrl":"","LocationType":"0","ParentStation":"","StopTimezone":"America/Los_Angeles"},{"StopIdKC":13840,"StopCode":0,"StopName":"15th Ave W & W Armory Way","StopDesc":"","StopLat":47.6374817,"StopLon":-122.376305,"ZoneId":1,"StopUrl":"","LocationType":"0","ParentStation":"","StopTimezone":"America/Los_Angeles"},{"StopIdKC":13870,"StopCode":0,"StopName":"Elliott Ave W & W Galer St","StopDesc":"","StopLat":47.6318817,"StopLon":-122.375305,"ZoneId":1,"StopUrl":"","LocationType":"0","ParentStation":"","StopTimezone":"America/Los_Angeles"},{"StopIdKC":13890,"StopCode":0,"StopName":"Elliott Ave W & W Prospect St","StopDesc":"","StopLat":47.6290588,"StopLon":-122.371742,"ZoneId":1,"StopUrl":"","LocationType":"0","ParentStation":"","StopTimezone":"America/Los_Angeles"},{"StopIdKC":13910,"StopCode":0,"StopName":"W Mercer St & 3rd Ave W","StopDesc":"","StopLat":47.6245346,"StopLon":-122.360718,"ZoneId":1,"StopUrl":"","LocationType":"0","ParentStation":"","StopTimezone":"America/Los_Angeles"},{"StopIdKC":1400,"StopCode":0,"StopName":"Madison St & 5th Ave","StopDesc":"","StopLat":47.606636,"StopLon":-122.331779,"ZoneId":21,"StopUrl":"","LocationType":"0","ParentStation":"","StopTimezone":"America/Los_Angeles"},{"StopIdKC":14038,"StopCode":0,"StopName":"W Mercer St & 3rd Ave W","StopDesc":"","StopLat":47.6246681,"StopLon":-122.361153,"ZoneId":1,"StopUrl":"","LocationType":"0","ParentStation":"","StopTimezone":"America/Los_Angeles"},{"StopIdKC":1404,"StopCode":0,"StopName":"S Washington St & 3rd Ave S","StopDesc":"","StopLat":47.6008034,"StopLon":-122.329758,"ZoneId":21,"StopUrl":"","LocationType":"0","ParentStation":"","StopTimezone":"America/Los_Angeles"},{"StopIdKC":14070,"StopCode":0,"StopName":"Elliott Ave W & W Prospect St","StopDesc":"","StopLat":47.6290131,"StopLon":-122.371414,"ZoneId":1,"StopUrl":"","LocationType":"0","ParentStation":"","StopTimezone":"America/Los_Angeles"},{"StopIdKC":14090,"StopCode":0,"StopName":"Elliott Ave W & W Galer St","StopDesc":"","StopLat":47.6322517,"StopLon":-122.375481,"ZoneId":1,"StopUrl":"","LocationType":"0","ParentStation":"","StopTimezone":"America/Los_Angeles"},{"StopIdKC":14110,"StopCode":0,"StopName":"15th Ave W & W Newton St","StopDesc":"","StopLat":47.6369629,"StopLon":-122.376099,"ZoneId":1,"StopUrl":"","LocationType":"0","ParentStation":"","StopTimezone":"America/Los_Angeles"},{"StopIdKC":14130,"StopCode":0,"StopName":"15th Ave W & W Wheeler St","StopDesc":"","StopLat":47.6409225,"StopLon":-122.376114,"ZoneId":1,"StopUrl":"","LocationType":"0","ParentStation":"","StopTimezone":"America/Los_Angeles"},{"StopIdKC":1415,"StopCode":0,"StopName":"Madison St & 4th Ave","StopDesc":"","StopLat":47.6059837,"StopLon":-122.333366,"ZoneId":21,"StopUrl":"","LocationType":"0","ParentStation":"","StopTimezone":"America/Los_Angeles"},{"StopIdKC":14150,"StopCode":0,"StopName":"15th Ave W & W Armour St","StopDesc":"","StopLat":47.6449356,"StopLon":-122.376122,"ZoneId":1,"StopUrl":"","LocationType":"0","ParentStation":"","StopTimezone":"America/Los_Angeles"},{"StopIdKC":14170,"StopCode":0,"StopName":"15th Ave W & W Dravus St","StopDesc":"","StopLat":47.6491623,"StopLon":-122.376045,"ZoneId":1,"StopUrl":"","LocationType":"0","ParentStation":"","StopTimezone":"America/Los_Angeles"},{"StopIdKC":14190,"StopCode":0,"StopName":"15th Ave W & W Emerson St","StopDesc":"","StopLat":47.6539421,"StopLon":-122.376122,"ZoneId":1,"StopUrl":"","LocationType":"0","ParentStation":"","StopTimezone":"America/Los_Angeles"},{"StopIdKC":14195,"StopCode":0,"StopName":"W Emerson Pl & 21st Ave W","StopDesc":"","StopLat":47.6552963,"StopLon":-122.382843,"ZoneId":1,"StopUrl":"","LocationType":"0","ParentStation":"","StopTimezone":"America/Los_Angeles"},{"StopIdKC":1420,"StopCode":0,"StopName":"Madison St & 2nd Ave","StopDesc":"","StopLat":47.6053276,"StopLon":-122.334923,"ZoneId":21,"StopUrl":"","LocationType":"0","ParentStation":"","StopTimezone":"America/Los_Angeles"},{"StopIdKC":14200,"StopCode":0,"StopName":"15th Ave NW & NW Leary Way","StopDesc":"","StopLat":47.6634369,"StopLon":-122.375977,"ZoneId":1,"StopUrl":"","LocationType":"0","ParentStation":"","StopTimezone":"America/Los_Angeles"},{"StopIdKC":14230,"StopCode":0,"StopName":"15th Ave NW & NW Market St","StopDesc":"","StopLat":47.6684799,"StopLon":-122.376114,"ZoneId":1,"StopUrl":"","LocationType":"0","ParentStation":"","StopTimezone":"America/Los_Angeles"},{"StopIdKC":14250,"StopCode":0,"StopName":"15th Ave NW & NW 60th St","StopDesc":"","StopLat":47.6722946,"StopLon":-122.376114,"ZoneId":1,"StopUrl":"","LocationType":"0","ParentStation":"","StopTimezone":"America/Los_Angeles"},{"StopIdKC":14280,"StopCode":0,"StopName":"15th Ave NW & NW 65th St","StopDesc":"","StopLat":47.6767349,"StopLon":-122.376671,"ZoneId":1,"StopUrl":"","LocationType":"0","ParentStation":"","StopTimezone":"America/Los_Angeles"},{"StopIdKC":14300,"StopCode":0,"StopName":"15th Ave NW & NW 70th St","StopDesc":"","StopLat":47.6798744,"StopLon":-122.376671,"ZoneId":1,"StopUrl":"","LocationType":"0","ParentStation":"","StopTimezone":"America/Los_Angeles"},{"StopIdKC":14320,"StopCode":0,"StopName":"15th Ave NW & NW 75th St","StopDesc":"","StopLat":47.6834221,"StopLon":-122.376686,"ZoneId":1,"StopUrl":"","LocationType":"0","ParentStation":"","StopTimezone":"America/Los_Angeles"},{"StopIdKC":14340,"StopCode":0,"StopName":"15th Ave NW & NW 80th St","StopDesc":"","StopLat":47.68713,"StopLon":-122.376701,"ZoneId":1,"StopUrl":"","LocationType":"0","ParentStation":"","StopTimezone":"America/Los_Angeles"},{"StopIdKC":14360,"StopCode":0,"StopName":"15th Ave NW & NW 85th St","StopDesc":"","StopLat":47.6911774,"StopLon":-122.376709,"ZoneId":1,"StopUrl":"","LocationType":"0","ParentStation":"","StopTimezone":"America/Los_Angeles"},{"StopIdKC":1471,"StopCode":0,"StopName":"S Jackson St & 5th Ave S","StopDesc":"","StopLat":47.5991287,"StopLon":-122.328041,"ZoneId":21,"StopUrl":"","LocationType":"0","ParentStation":"","StopTimezone":"America/Los_Angeles"},{"StopIdKC":1480,"StopCode":0,"StopName":"S Jackson St & Maynard Ave S","StopDesc":"","StopLat":47.5991173,"StopLon":-122.32457,"ZoneId":21,"StopUrl":"","LocationType":"0","ParentStation":"","StopTimezone":"America/Los_Angeles"},{"StopIdKC":1490,"StopCode":0,"StopName":"S Jackson St & 8th Ave S","StopDesc":"","StopLat":47.5991173,"StopLon":-122.322044,"ZoneId":1,"StopUrl":"","LocationType":"0","ParentStation":"","StopTimezone":"America/Los_Angeles"},{"StopIdKC":14960,"StopCode":0,"StopName":"Alki Ave SW & 61st Ave SW","StopDesc":"","StopLat":47.5789948,"StopLon":-122.410797,"ZoneId":1,"StopUrl":"","LocationType":"0","ParentStation":"","StopTimezone":"America/Los_Angeles"},{"StopIdKC":14961,"StopCode":0,"StopName":"61st Ave SW & SW Stevens St","StopDesc":"","StopLat":47.5775185,"StopLon":-122.410797,"ZoneId":1,"StopUrl":"","LocationType":"0","ParentStation":"","StopTimezone":"America/Los_Angeles"},{"StopIdKC":14962,"StopCode":0,"StopName":"61st Ave SW & SW Admiral Way","StopDesc":"","StopLat":47.5760269,"StopLon":-122.410835,"ZoneId":1,"StopUrl":"","LocationType":"0","ParentStation":"","StopTimezone":"America/Los_Angeles"},{"StopIdKC":14963,"StopCode":0,"StopName":"SW Admiral Way & 60th Ave SW","StopDesc":"","StopLat":47.5758171,"StopLon":-122.409019,"ZoneId":1,"StopUrl":"","LocationType":"0","ParentStation":"","StopTimezone":"America/Los_Angeles"},{"StopIdKC":14970,"StopCode":0,"StopName":"SW Admiral Way & 59th Ave SW","StopDesc":"","StopLat":47.5760765,"StopLon":-122.407791,"ZoneId":1,"StopUrl":"","LocationType":"0","ParentStation":"","StopTimezone":"America/Los_Angeles"},{"StopIdKC":14980,"StopCode":0,"StopName":"SW Admiral Way & 57th Ave SW","StopDesc":"","StopLat":47.577034,"StopLon":-122.405182,"ZoneId":1,"StopUrl":"","LocationType":"0","ParentStation":"","StopTimezone":"America/Los_Angeles"},{"StopIdKC":1500,"StopCode":0,"StopName":"S Jackson St & 8th Ave S","StopDesc":"","StopLat":47.5992661,"StopLon":-122.322327,"ZoneId":21,"StopUrl":"","LocationType":"0","ParentStation":"","StopTimezone":"America/Los_Angeles"},{"StopIdKC":15000,"StopCode":0,"StopName":"SW Admiral Way & SW Stevens St","StopDesc":"","StopLat":47.5785828,"StopLon":-122.400917,"ZoneId":1,"StopUrl":"","LocationType":"0","ParentStation":"","StopTimezone":"America/Los_Angeles"},{"StopIdKC":15002,"StopCode":0,"StopName":"SW Admiral Way & 51st Ave SW","StopDesc":"","StopLat":47.5791893,"StopLon":-122.396996,"ZoneId":1,"StopUrl":"","LocationType":"0","ParentStation":"","StopTimezone":"America/Los_Angeles"},{"StopIdKC":15030,"StopCode":0,"StopName":"SW Admiral Way & SW Lander St","StopDesc":"","StopLat":47.5795288,"StopLon":-122.393799,"ZoneId":1,"StopUrl":"","LocationType":"0","ParentStation":"","StopTimezone":"America/Los_Angeles"},{"StopIdKC":15040,"StopCode":0,"StopName":"SW Admiral Way & 47th Ave SW","StopDesc":"","StopLat":47.5811577,"StopLon":-122.391571,"ZoneId":1,"StopUrl":"","LocationType":"0","ParentStation":"","StopTimezone":"America/Los_Angeles"},{"StopIdKC":15050,"StopCode":0,"StopName":"SW Admiral Way & 45th Ave SW","StopDesc":"","StopLat":47.5811424,"StopLon":-122.388924,"ZoneId":1,"StopUrl":"","LocationType":"0","ParentStation":"","StopTimezone":"America/Los_Angeles"},{"StopIdKC":15060,"StopCode":0,"StopName":"SW Admiral Way & California Ave SW","StopDesc":"","StopLat":47.5811234,"StopLon":-122.386177,"ZoneId":1,"StopUrl":"","LocationType":"0","ParentStation":"","StopTimezone":"America/Los_Angeles"},{"StopIdKC":15070,"StopCode":0,"StopName":"SW Admiral Way & 41st Ave SW","StopDesc":"","StopLat":47.5811119,"StopLon":-122.38398,"ZoneId":1,"StopUrl":"","LocationType":"0","ParentStation":"","StopTimezone":"America/Los_Angeles"},{"StopIdKC":15080,"StopCode":0,"StopName":"SW Admiral Way & 39th Ave SW","StopDesc":"","StopLat":47.5810432,"StopLon":-122.38092,"ZoneId":1,"StopUrl":"","LocationType":"0","ParentStation":"","StopTimezone":"America/Los_Angeles"},{"StopIdKC":15090,"StopCode":0,"StopName":"SW Admiral Way & Belvidere Ave SW","StopDesc":"","StopLat":47.5810242,"StopLon":-122.378922,"ZoneId":1,"StopUrl":"","LocationType":"0","ParentStation":"","StopTimezone":"America/Los_Angeles"},{"StopIdKC":1510,"StopCode":0,"StopName":"S Jackson St & Maynard Ave S","StopDesc":"","StopLat":47.5992622,"StopLon":-122.32547,"ZoneId":21,"StopUrl":"","LocationType":"0","ParentStation":"","StopTimezone":"America/Los_Angeles"},{"StopIdKC":15100,"StopCode":0,"StopName":"SW Admiral Way & SW Olga St","StopDesc":"","StopLat":47.5802498,"StopLon":-122.376793,"ZoneId":1,"StopUrl":"","LocationType":"0","ParentStation":"","StopTimezone":"America/Los_Angeles"},{"StopIdKC":15120,"StopCode":0,"StopName":"SW Admiral Way & SW City View St","StopDesc":"","StopLat":47.573616,"StopLon":-122.373352,"ZoneId":1,"StopUrl":"","LocationType":"0","ParentStation":"","StopTimezone":"America/Los_Angeles"},{"StopIdKC":15140,"StopCode":0,"StopName":"SW Spokane St & 26th Ave SW","StopDesc":"","StopLat":47.5714531,"StopLon":-122.365234,"ZoneId":1,"StopUrl":"","LocationType":"0","ParentStation":"","StopTimezone":"America/Los_Angeles"},{"StopIdKC":15146,"StopCode":0,"StopName":"SW Spokane St & Chelan Ave SW","StopDesc":"","StopLat":47.571434,"StopLon":-122.362106,"ZoneId":1,"StopUrl":"","LocationType":"0","ParentStation":"","StopTimezone":"America/Los_Angeles"},{"StopIdKC":15190,"StopCode":0,"StopName":"1st Ave S & S Spokane St","StopDesc":"","StopLat":47.5725441,"StopLon":-122.333992,"ZoneId":1,"StopUrl":"","LocationType":"0","ParentStation":"","StopTimezone":"America/Los_Angeles"},{"StopIdKC":15201,"StopCode":0,"StopName":"1st Ave S & S Atlantic St","StopDesc":"","StopLat":47.589901,"StopLon":-122.334297,"ZoneId":1,"StopUrl":"","LocationType":"0","ParentStation":"","StopTimezone":"America/Los_Angeles"},{"StopIdKC":15202,"StopCode":0,"StopName":"1st Ave S & S Holgate St","StopDesc":"","StopLat":47.585762,"StopLon":-122.334297,"ZoneId":1,"StopUrl":"","LocationType":"0","ParentStation":"","StopTimezone":"America/Los_Angeles"},{"StopIdKC":15203,"StopCode":0,"StopName":"1st Ave S & S Stacy St","StopDesc":"","StopLat":47.5815544,"StopLon":-122.334297,"ZoneId":1,"StopUrl":"","LocationType":"0","ParentStation":"","StopTimezone":"America/Los_Angeles"},{"StopIdKC":15204,"StopCode":0,"StopName":"Edgar Martinez Dr S & Occidental Ave S","StopDesc":"","StopLat":47.5901947,"StopLon":-122.333588,"ZoneId":1,"StopUrl":"","LocationType":"0","ParentStation":"","StopTimezone":"America/Los_Angeles"},{"StopIdKC":15205,"StopCode":0,"StopName":"1st Ave S & S Hanford St","StopDesc":"","StopLat":47.5759239,"StopLon":-122.334106,"ZoneId":1,"StopUrl":"","LocationType":"0","ParentStation":"","StopTimezone":"America/Los_Angeles"},{"StopIdKC":15206,"StopCode":0,"StopName":"1st Ave S & S Stacy St","StopDesc":"","StopLat":47.5822334,"StopLon":-122.334106,"ZoneId":1,"StopUrl":"","LocationType":"0","ParentStation":"","StopTimezone":"America/Los_Angeles"},{"StopIdKC":15207,"StopCode":0,"StopName":"1st Ave S & S Holgate St","StopDesc":"","StopLat":47.5864487,"StopLon":-122.334106,"ZoneId":1,"StopUrl":"","LocationType":"0","ParentStation":"","StopTimezone":"America/Los_Angeles"},{"StopIdKC":15230,"StopCode":0,"StopName":"1st Ave S & S Lander St","StopDesc":"","StopLat":47.5796814,"StopLon":-122.334106,"ZoneId":1,"StopUrl":"","LocationType":"0","ParentStation":"","StopTimezone":"America/Los_Angeles"},{"StopIdKC":1530,"StopCode":0,"StopName":"S Jackson St & 5th Ave S","StopDesc":"","StopLat":47.5992661,"StopLon":-122.328384,"ZoneId":1,"StopUrl":"","LocationType":"0","ParentStation":"","StopTimezone":"America/Los_Angeles"},{"StopIdKC":15380,"StopCode":0,"StopName":"1st Ave S & S Lander St","StopDesc":"","StopLat":47.5792503,"StopLon":-122.334312,"ZoneId":1,"StopUrl":"","LocationType":"0","ParentStation":"","StopTimezone":"America/Los_Angeles"},{"StopIdKC":15395,"StopCode":0,"StopName":"1st Ave S & S Hanford St","StopDesc":"","StopLat":47.5757523,"StopLon":-122.334312,"ZoneId":1,"StopUrl":"","LocationType":"0","ParentStation":"","StopTimezone":"America/Los_Angeles"},{"StopIdKC":1540,"StopCode":0,"StopName":"James St & 5th Ave","StopDesc":"","StopLat":47.6038017,"StopLon":-122.329094,"ZoneId":21,"StopUrl":"","LocationType":"0","ParentStation":"","StopTimezone":"America/Los_Angeles"},{"StopIdKC":15431,"StopCode":0,"StopName":"SW Spokane St & SW Manning St","StopDesc":"","StopLat":47.5715599,"StopLon":-122.345535,"ZoneId":1,"StopUrl":"","LocationType":"0","ParentStation":"","StopTimezone":"America/Los_Angeles"},{"StopIdKC":15432,"StopCode":0,"StopName":"SW Spokane St & SW Manning St","StopDesc":"","StopLat":47.5714188,"StopLon":-122.345253,"ZoneId":1,"StopUrl":"","LocationType":"0","ParentStation":"","StopTimezone":"America/Los_Angeles"},{"StopIdKC":15451,"StopCode":0,"StopName":"SW Spokane St & Chelan Ave SW","StopDesc":"","StopLat":47.5717201,"StopLon":-122.363365,"ZoneId":1,"StopUrl":"","LocationType":"0","ParentStation":"","StopTimezone":"America/Los_Angeles"},{"StopIdKC":15460,"StopCode":0,"StopName":"SW Spokane St & 26th Ave SW","StopDesc":"","StopLat":47.5717125,"StopLon":-122.366165,"ZoneId":1,"StopUrl":"","LocationType":"0","ParentStation":"","StopTimezone":"America/Los_Angeles"},{"StopIdKC":15480,"StopCode":0,"StopName":"SW Admiral Way & SW City View St","StopDesc":"","StopLat":47.5740433,"StopLon":-122.373474,"ZoneId":1,"StopUrl":"","LocationType":"0","ParentStation":"","StopTimezone":"America/Los_Angeles"},{"StopIdKC":1550,"StopCode":0,"StopName":"James St & 4th Ave","StopDesc":"","StopLat":47.6030807,"StopLon":-122.330864,"ZoneId":21,"StopUrl":"","LocationType":"0","ParentStation":"","StopTimezone":"America/Los_Angeles"},{"StopIdKC":15500,"StopCode":0,"StopName":"SW Admiral Way & SW Olga St","StopDesc":"","StopLat":47.5801315,"StopLon":-122.376564,"ZoneId":1,"StopUrl":"","LocationType":"0","ParentStation":"","StopTimezone":"America/Los_Angeles"},{"StopIdKC":1551,"StopCode":0,"StopName":"S Jackson St & Occidental Ave Walk","StopDesc":"","StopLat":47.5992737,"StopLon":-122.333282,"ZoneId":1,"StopUrl":"","LocationType":"0","ParentStation":"","StopTimezone":"America/Los_Angeles"},{"StopIdKC":15521,"StopCode":0,"StopName":"SW Admiral Way & 38th Ave SW","StopDesc":"","StopLat":47.5812531,"StopLon":-122.380676,"ZoneId":1,"StopUrl":"","LocationType":"0","ParentStation":"","StopTimezone":"America/Los_Angeles"},{"StopIdKC":15532,"StopCode":0,"StopName":"SW Admiral Way & 41st Ave SW","StopDesc":"","StopLat":47.5812454,"StopLon":-122.384743,"ZoneId":1,"StopUrl":"","LocationType":"0","ParentStation":"","StopTimezone":"America/Los_Angeles"},{"StopIdKC":15540,"StopCode":0,"StopName":"SW Admiral Way & California Ave SW","StopDesc":"","StopLat":47.5812683,"StopLon":-122.386871,"ZoneId":1,"StopUrl":"","LocationType":"0","ParentStation":"","StopTimezone":"America/Los_Angeles"},{"StopIdKC":15570,"StopCode":0,"StopName":"SW Admiral Way & SW Waite St","StopDesc":"","StopLat":47.5810471,"StopLon":-122.392273,"ZoneId":1,"StopUrl":"","LocationType":"0","ParentStation":"","StopTimezone":"America/Los_Angeles"},{"StopIdKC":1558,"StopCode":0,"StopName":"Columbia St & Alaskan Way","StopDesc":"","StopLat":47.6024704,"StopLon":-122.33712,"ZoneId":1,"StopUrl":"","LocationType":"0","ParentStation":"","StopTimezone":"America/Los_Angeles"},{"StopIdKC":15580,"StopCode":0,"StopName":"SW Admiral Way & 49th Ave SW","StopDesc":"","StopLat":47.5798187,"StopLon":-122.393707,"ZoneId":1,"StopUrl":"","LocationType":"0","ParentStation":"","StopTimezone":"America/Los_Angeles"},{"StopIdKC":15588,"StopCode":0,"StopName":"SW Admiral Way & 51st Ave SW","StopDesc":"","StopLat":47.5793343,"StopLon":-122.397163,"ZoneId":1,"StopUrl":"","LocationType":"0","ParentStation":"","StopTimezone":"America/Los_Angeles"},{"StopIdKC":1560,"StopCode":0,"StopName":"James St & 3rd Ave","StopDesc":"","StopLat":47.602932,"StopLon":-122.330826,"ZoneId":21,"StopUrl":"","LocationType":"0","ParentStation":"","StopTimezone":"America/Los_Angeles"},{"StopIdKC":15610,"StopCode":0,"StopName":"SW Admiral Way & SW Lander St","StopDesc":"","StopLat":47.5788994,"StopLon":-122.400673,"ZoneId":1,"StopUrl":"","LocationType":"0","ParentStation":"","StopTimezone":"America/Los_Angeles"},{"StopIdKC":15630,"StopCode":0,"StopName":"SW Admiral Way & 57th Ave SW","StopDesc":"","StopLat":47.5771675,"StopLon":-122.405319,"ZoneId":1,"StopUrl":"","LocationType":"0","ParentStation":"","StopTimezone":"America/Los_Angeles"},{"StopIdKC":1565,"StopCode":0,"StopName":"Columbia St & Western Ave","StopDesc":"","StopLat":47.6027451,"StopLon":-122.336075,"ZoneId":21,"StopUrl":"","LocationType":"0","ParentStation":"","StopTimezone":"America/Los_Angeles"},{"StopIdKC":15650,"StopCode":0,"StopName":"SW Admiral Way & 61st Ave SW","StopDesc":"","StopLat":47.5759735,"StopLon":-122.41066,"ZoneId":1,"StopUrl":"","LocationType":"0","ParentStation":"","StopTimezone":"America/Los_Angeles"},{"StopIdKC":15651,"StopCode":0,"StopName":"63rd Ave SW & SW Admiral Way","StopDesc":"","StopLat":47.5762405,"StopLon":-122.413239,"ZoneId":1,"StopUrl":"","LocationType":"0","ParentStation":"","StopTimezone":"America/Los_Angeles"},{"StopIdKC":15652,"StopCode":0,"StopName":"63rd Ave SW & Alki Ave SW","StopDesc":"","StopLat":47.5782089,"StopLon":-122.413185,"ZoneId":1,"StopUrl":"","LocationType":"0","ParentStation":"","StopTimezone":"America/Los_Angeles"},{"StopIdKC":1570,"StopCode":0,"StopName":"James St & 5th Ave","StopDesc":"","StopLat":47.6037712,"StopLon":-122.328773,"ZoneId":21,"StopUrl":"","LocationType":"0","ParentStation":"","StopTimezone":"America/Los_Angeles"},{"StopIdKC":1580,"StopCode":0,"StopName":"Marion St & 2nd Ave","StopDesc":"","StopLat":47.6045341,"StopLon":-122.334076,"ZoneId":21,"StopUrl":"","LocationType":"0","ParentStation":"","StopTimezone":"America/Los_Angeles"},{"StopIdKC":1590,"StopCode":0,"StopName":"Marion St & 4th Ave","StopDesc":"","StopLat":47.6054611,"StopLon":-122.331863,"ZoneId":21,"StopUrl":"","LocationType":"0","ParentStation":"","StopTimezone":"America/Los_Angeles"},{"StopIdKC":1610,"StopCode":0,"StopName":"Prefontaine Pl S & Yesler Way","StopDesc":"","StopLat":47.6017342,"StopLon":-122.330116,"ZoneId":21,"StopUrl":"","LocationType":"0","ParentStation":"","StopTimezone":"America/Los_Angeles"},{"StopIdKC":16100,"StopCode":0,"StopName":"Aurora Village Transit Center - Bay 10","StopDesc":"","StopLat":47.7742424,"StopLon":-122.342407,"ZoneId":18,"StopUrl":"","LocationType":"0","ParentStation":"","StopTimezone":"America/Los_Angeles"},{"StopIdKC":16101,"StopCode":0,"StopName":"Aurora Village Transit Center - Bay 1","StopDesc":"","StopLat":47.7745056,"StopLon":-122.341988,"ZoneId":18,"StopUrl":"","LocationType":"0","ParentStation":"","StopTimezone":"America/Los_Angeles"},{"StopIdKC":16102,"StopCode":0,"StopName":"Aurora Village Transit Center - Bay 2","StopDesc":"","StopLat":47.7745056,"StopLon":-122.3414,"ZoneId":18,"StopUrl":"","LocationType":"0","ParentStation":"","StopTimezone":"America/Los_Angeles"},{"StopIdKC":16103,"StopCode":0,"StopName":"Aurora Village Transit Center - Bay 3","StopDesc":"","StopLat":47.7745056,"StopLon":-122.340881,"ZoneId":18,"StopUrl":"","LocationType":"0","ParentStation":"","StopTimezone":"America/Los_Angeles"},{"StopIdKC":16104,"StopCode":0,"StopName":"Aurora Village Transit Center - Bay 4","StopDesc":"","StopLat":47.774395,"StopLon":-122.341988,"ZoneId":18,"StopUrl":"","LocationType":"0","ParentStation":"","StopTimezone":"America/Los_Angeles"},{"StopIdKC":16106,"StopCode":0,"StopName":"Aurora Village Transit Center - Bay 6","StopDesc":"","StopLat":47.774395,"StopLon":-122.341034,"ZoneId":18,"StopUrl":"","LocationType":"0","ParentStation":"","StopTimezone":"America/Los_Angeles"},{"StopIdKC":16112,"StopCode":0,"StopName":"Aurora Village Transit Center - Bay 12","StopDesc":"","StopLat":47.7742348,"StopLon":-122.341301,"ZoneId":18,"StopUrl":"","LocationType":"0","ParentStation":"","StopTimezone":"America/Los_Angeles"},{"StopIdKC":16140,"StopCode":0,"StopName":"Meridian Ave N & N 203rd St","StopDesc":"","StopLat":47.7756462,"StopLon":-122.335358,"ZoneId":18,"StopUrl":"","LocationType":"0","ParentStation":"","StopTimezone":"America/Los_Angeles"},{"StopIdKC":16160,"StopCode":0,"StopName":"Meridian Ave N & N 198th St","StopDesc":"","StopLat":47.7721138,"StopLon":-122.335304,"ZoneId":18,"StopUrl":"","LocationType":"0","ParentStation":"","StopTimezone":"America/Los_Angeles"},{"StopIdKC":16170,"StopCode":0,"StopName":"Meridian Ave N & N 194th St","StopDesc":"","StopLat":47.7698402,"StopLon":-122.335266,"ZoneId":18,"StopUrl":"","LocationType":"0","ParentStation":"","StopTimezone":"America/Los_Angeles"},{"StopIdKC":16180,"StopCode":0,"StopName":"Meridian Ave N & N 190th St","StopDesc":"","StopLat":47.7666931,"StopLon":-122.335197,"ZoneId":18,"StopUrl":"","LocationType":"0","ParentStation":"","StopTimezone":"America/Los_Angeles"},{"StopIdKC":1619,"StopCode":0,"StopName":"Westlake Ave & Virginia St","StopDesc":"","StopLat":47.6148643,"StopLon":-122.33786,"ZoneId":1,"StopUrl":"","LocationType":"0","ParentStation":"","StopTimezone":"America/Los_Angeles"},{"StopIdKC":16190,"StopCode":0,"StopName":"Meridian Ave N & N 188th St","StopDesc":"","StopLat":47.7653694,"StopLon":-122.335167,"ZoneId":18,"StopUrl":"","LocationType":"0","ParentStation":"","StopTimezone":"America/Los_Angeles"},{"StopIdKC":16200,"StopCode":0,"StopName":"Meridian Ave N & N 185th St","StopDesc":"","StopLat":47.7629204,"StopLon":-122.335114,"ZoneId":18,"StopUrl":"","LocationType":"0","ParentStation":"","StopTimezone":"America/Los_Angeles"},{"StopIdKC":16210,"StopCode":0,"StopName":"Meridian Ave N & N 183rd St","StopDesc":"","StopLat":47.7615395,"StopLon":-122.335091,"ZoneId":18,"StopUrl":"","LocationType":"0","ParentStation":"","StopTimezone":"America/Los_Angeles"},{"StopIdKC":16220,"StopCode":0,"StopName":"Meridian Ave N & N 180th St","StopDesc":"","StopLat":47.7593842,"StopLon":-122.33503,"ZoneId":18,"StopUrl":"","LocationType":"0","ParentStation":"","StopTimezone":"America/Los_Angeles"},{"StopIdKC":16230,"StopCode":0,"StopName":"Meridian Ave N & N 178th St","StopDesc":"","StopLat":47.7575531,"StopLon":-122.334991,"ZoneId":18,"StopUrl":"","LocationType":"0","ParentStation":"","StopTimezone":"America/Los_Angeles"},{"StopIdKC":16240,"StopCode":0,"StopName":"Meridian Ave N & N 175th St","StopDesc":"","StopLat":47.7556343,"StopLon":-122.334938,"ZoneId":18,"StopUrl":"","LocationType":"0","ParentStation":"","StopTimezone":"America/Los_Angeles"},{"StopIdKC":16250,"StopCode":0,"StopName":"Meridian Ave N & N 170th St","StopDesc":"","StopLat":47.7525482,"StopLon":-122.334885,"ZoneId":18,"StopUrl":"","LocationType":"0","ParentStation":"","StopTimezone":"America/Los_Angeles"},{"StopIdKC":16260,"StopCode":0,"StopName":"Meridian Ave N & N 167th St","StopDesc":"","StopLat":47.750267,"StopLon":-122.334839,"ZoneId":18,"StopUrl":"","LocationType":"0","ParentStation":"","StopTimezone":"America/Los_Angeles"},{"StopIdKC":16270,"StopCode":0,"StopName":"Meridian Ave N & N 165th St","StopDesc":"","StopLat":47.7484436,"StopLon":-122.334801,"ZoneId":18,"StopUrl":"","LocationType":"0","ParentStation":"","StopTimezone":"America/Los_Angeles"},{"StopIdKC":16280,"StopCode":0,"StopName":"Meridian Ave N & N 163rd St","StopDesc":"","StopLat":47.7466393,"StopLon":-122.334747,"ZoneId":18,"StopUrl":"","LocationType":"0","ParentStation":"","StopTimezone":"America/Los_Angeles"},{"StopIdKC":16290,"StopCode":0,"StopName":"Meridian Ave N & N 160th St","StopDesc":"","StopLat":47.7448349,"StopLon":-122.334694,"ZoneId":18,"StopUrl":"","LocationType":"0","ParentStation":"","StopTimezone":"America/Los_Angeles"},{"StopIdKC":1630,"StopCode":0,"StopName":"Westlake Ave & Olive Way","StopDesc":"","StopLat":47.6132812,"StopLon":-122.337547,"ZoneId":21,"StopUrl":"","LocationType":"0","ParentStation":"","StopTimezone":"America/Los_Angeles"},{"StopIdKC":16300,"StopCode":0,"StopName":"Meridian Ave N & N 158th St","StopDesc":"","StopLat":47.7434006,"StopLon":-122.334648,"ZoneId":18,"StopUrl":"","LocationType":"0","ParentStation":"","StopTimezone":"America/Los_Angeles"},{"StopIdKC":16310,"StopCode":0,"StopName":"Meridian Ave N & N 155th St","StopDesc":"","StopLat":47.7411385,"StopLon":-122.334579,"ZoneId":18,"StopUrl":"","LocationType":"0","ParentStation":"","StopTimezone":"America/Los_Angeles"},{"StopIdKC":16330,"StopCode":0,"StopName":"Meridian Ave N & N 150th St","StopDesc":"","StopLat":47.7375755,"StopLon":-122.334473,"ZoneId":18,"StopUrl":"","LocationType":"0","ParentStation":"","StopTimezone":"America/Los_Angeles"},{"StopIdKC":16340,"StopCode":0,"StopName":"Meridian Ave N & N 148th St","StopDesc":"","StopLat":47.736145,"StopLon":-122.33445,"ZoneId":18,"StopUrl":"","LocationType":"0","ParentStation":"","StopTimezone":"America/Los_Angeles"},{"StopIdKC":16390,"StopCode":0,"StopName":"NE Ravenna Blvd & Woodlawn Ave NE","StopDesc":"","StopLat":47.6784592,"StopLon":-122.324844,"ZoneId":1,"StopUrl":"","LocationType":"0","ParentStation":"","StopTimezone":"America/Los_Angeles"},{"StopIdKC":16400,"StopCode":0,"StopName":"NE Ravenna Blvd & NE 68th St","StopDesc":"","StopLat":47.6773834,"StopLon":-122.323875,"ZoneId":1,"StopUrl":"","LocationType":"0","ParentStation":"","StopTimezone":"America/Los_Angeles"},